polling_interval_seconds: 60
waze_server_url: http://localhost:8080
database_path: ./data/waze_americas.db
collection_mode: americas
grid_cells:
- name: arequipa
  lat_top: -16.36
  lat_bottom: -16.44
  lon_left: -71.58
  lon_right: -71.5
  country: PE
  priority: 1
- name: arequipa_e
  lat_top: -16.36
  lat_bottom: -16.44
  lon_left: -71.5
  lon_right: -71.42
  country: PE
  priority: 1
- name: arequipa_n
  lat_top: -16.28
  lat_bottom: -16.36
  lon_left: -71.58
  lon_right: -71.5
  country: PE
  priority: 1
- name: arequipa_n_e
  lat_top: -16.28
  lat_bottom: -16.36
  lon_left: -71.5
  lon_right: -71.42
  country: PE
  priority: 1
- name: arequipa_n_w
  lat_top: -16.28
  lat_bottom: -16.36
  lon_left: -71.66
  lon_right: -71.58
  country: PE
  priority: 1
- name: arequipa_s
  lat_top: -16.44
  lat_bottom: -16.52
  lon_left: -71.58
  lon_right: -71.5
  country: PE
  priority: 1
- name: arequipa_s_e
  lat_top: -16.44
  lat_bottom: -16.52
  lon_left: -71.5
  lon_right: -71.42
  country: PE
  priority: 1
- name: arequipa_s_w
  lat_top: -16.44
  lat_bottom: -16.52
  lon_left: -71.66
  lon_right: -71.58
  country: PE
  priority: 1
- name: arequipa_w
  lat_top: -16.36
  lat_bottom: -16.44
  lon_left: -71.66
  lon_right: -71.58
  country: PE
  priority: 1
- name: atlanta
  lat_top: 33.79
  lat_bottom: 33.71
  lon_left: -84.43
  lon_right: -84.35
  country: US
  priority: 1
- name: atlanta_e
  lat_top: 33.79
  lat_bottom: 33.71
  lon_left: -84.35
  lon_right: -84.27
  country: US
  priority: 1
- name: atlanta_n
  lat_top: 33.87
  lat_bottom: 33.79
  lon_left: -84.43
  lon_right: -84.35
  country: US
  priority: 1
- name: atlanta_n_e
  lat_top: 33.87
  lat_bottom: 33.79
  lon_left: -84.35
  lon_right: -84.27
  country: US
  priority: 1
- name: atlanta_n_w
  lat_top: 33.87
  lat_bottom: 33.79
  lon_left: -84.51
  lon_right: -84.43
  country: US
  priority: 1
- name: atlanta_s
  lat_top: 33.71
  lat_bottom: 33.63
  lon_left: -84.43
  lon_right: -84.35
  country: US
  priority: 1
- name: atlanta_s_e
  lat_top: 33.71
  lat_bottom: 33.63
  lon_left: -84.35
  lon_right: -84.27
  country: US
  priority: 1
- name: atlanta_s_w
  lat_top: 33.71
  lat_bottom: 33.63
  lon_left: -84.51
  lon_right: -84.43
  country: US
  priority: 1
- name: atlanta_w
  lat_top: 33.79
  lat_bottom: 33.71
  lon_left: -84.51
  lon_right: -84.43
  country: US
  priority: 1
- name: austin
  lat_top: 30.31
  lat_bottom: 30.23
  lon_left: -97.78
  lon_right: -97.7
  country: US
  priority: 1
- name: austin_e
  lat_top: 30.31
  lat_bottom: 30.23
  lon_left: -97.7
  lon_right: -97.62
  country: US
  priority: 1
- name: austin_n
  lat_top: 30.39
  lat_bottom: 30.31
  lon_left: -97.78
  lon_right: -97.7
  country: US
  priority: 1
- name: austin_n_e
  lat_top: 30.39
  lat_bottom: 30.31
  lon_left: -97.7
  lon_right: -97.62
  country: US
  priority: 1
- name: austin_n_w
  lat_top: 30.39
  lat_bottom: 30.31
  lon_left: -97.86
  lon_right: -97.78
  country: US
  priority: 1
- name: austin_s
  lat_top: 30.23
  lat_bottom: 30.15
  lon_left: -97.78
  lon_right: -97.7
  country: US
  priority: 1
- name: austin_s_e
  lat_top: 30.23
  lat_bottom: 30.15
  lon_left: -97.7
  lon_right: -97.62
  country: US
  priority: 1
- name: austin_s_w
  lat_top: 30.23
  lat_bottom: 30.15
  lon_left: -97.86
  lon_right: -97.78
  country: US
  priority: 1
- name: austin_w
  lat_top: 30.31
  lat_bottom: 30.23
  lon_left: -97.86
  lon_right: -97.78
  country: US
  priority: 1
- name: baltimore
  lat_top: 39.33
  lat_bottom: 39.25
  lon_left: -76.65
  lon_right: -76.57
  country: US
  priority: 1
- name: baltimore_e
  lat_top: 39.33
  lat_bottom: 39.25
  lon_left: -76.57
  lon_right: -76.49
  country: US
  priority: 1
- name: baltimore_n
  lat_top: 39.41
  lat_bottom: 39.33
  lon_left: -76.65
  lon_right: -76.57
  country: US
  priority: 1
- name: baltimore_n_e
  lat_top: 39.41
  lat_bottom: 39.33
  lon_left: -76.57
  lon_right: -76.49
  country: US
  priority: 1
- name: baltimore_n_w
  lat_top: 39.41
  lat_bottom: 39.33
  lon_left: -76.73
  lon_right: -76.65
  country: US
  priority: 1
- name: baltimore_s
  lat_top: 39.25
  lat_bottom: 39.17
  lon_left: -76.65
  lon_right: -76.57
  country: US
  priority: 1
- name: baltimore_s_e
  lat_top: 39.25
  lat_bottom: 39.17
  lon_left: -76.57
  lon_right: -76.49
  country: US
  priority: 1
- name: baltimore_s_w
  lat_top: 39.25
  lat_bottom: 39.17
  lon_left: -76.73
  lon_right: -76.65
  country: US
  priority: 1
- name: baltimore_w
  lat_top: 39.33
  lat_bottom: 39.25
  lon_left: -76.73
  lon_right: -76.65
  country: US
  priority: 1
- name: barranquilla
  lat_top: 11.0
  lat_bottom: 10.92
  lon_left: -74.84
  lon_right: -74.76
  country: CO
  priority: 1
- name: barranquilla_e
  lat_top: 11.0
  lat_bottom: 10.92
  lon_left: -74.76
  lon_right: -74.68
  country: CO
  priority: 1
- name: barranquilla_n
  lat_top: 11.08
  lat_bottom: 11.0
  lon_left: -74.84
  lon_right: -74.76
  country: CO
  priority: 1
- name: barranquilla_n_e
  lat_top: 11.08
  lat_bottom: 11.0
  lon_left: -74.76
  lon_right: -74.68
  country: CO
  priority: 1
- name: barranquilla_n_w
  lat_top: 11.08
  lat_bottom: 11.0
  lon_left: -74.92
  lon_right: -74.84
  country: CO
  priority: 1
- name: barranquilla_s
  lat_top: 10.92
  lat_bottom: 10.84
  lon_left: -74.84
  lon_right: -74.76
  country: CO
  priority: 1
- name: barranquilla_s_e
  lat_top: 10.92
  lat_bottom: 10.84
  lon_left: -74.76
  lon_right: -74.68
  country: CO
  priority: 1
- name: barranquilla_s_w
  lat_top: 10.92
  lat_bottom: 10.84
  lon_left: -74.92
  lon_right: -74.84
  country: CO
  priority: 1
- name: barranquilla_w
  lat_top: 11.0
  lat_bottom: 10.92
  lon_left: -74.92
  lon_right: -74.84
  country: CO
  priority: 1
- name: belo_horizonte
  lat_top: -19.88
  lat_bottom: -19.96
  lon_left: -43.98
  lon_right: -43.9
  country: BR
  priority: 1
- name: belo_horizonte_e
  lat_top: -19.88
  lat_bottom: -19.96
  lon_left: -43.9
  lon_right: -43.82
  country: BR
  priority: 1
- name: belo_horizonte_n
  lat_top: -19.8
  lat_bottom: -19.88
  lon_left: -43.98
  lon_right: -43.9
  country: BR
  priority: 1
- name: belo_horizonte_n_e
  lat_top: -19.8
  lat_bottom: -19.88
  lon_left: -43.9
  lon_right: -43.82
  country: BR
  priority: 1
- name: belo_horizonte_n_w
  lat_top: -19.8
  lat_bottom: -19.88
  lon_left: -44.06
  lon_right: -43.98
  country: BR
  priority: 1
- name: belo_horizonte_s
  lat_top: -19.96
  lat_bottom: -20.04
  lon_left: -43.98
  lon_right: -43.9
  country: BR
  priority: 1
- name: belo_horizonte_s_e
  lat_top: -19.96
  lat_bottom: -20.04
  lon_left: -43.9
  lon_right: -43.82
  country: BR
  priority: 1
- name: belo_horizonte_s_w
  lat_top: -19.96
  lat_bottom: -20.04
  lon_left: -44.06
  lon_right: -43.98
  country: BR
  priority: 1
- name: belo_horizonte_w
  lat_top: -19.88
  lat_bottom: -19.96
  lon_left: -44.06
  lon_right: -43.98
  country: BR
  priority: 1
- name: bogota
  lat_top: 4.75
  lat_bottom: 4.67
  lon_left: -74.11
  lon_right: -74.03
  country: CO
  priority: 1
- name: bogota_e
  lat_top: 4.75
  lat_bottom: 4.67
  lon_left: -74.03
  lon_right: -73.95
  country: CO
  priority: 1
- name: bogota_n
  lat_top: 4.83
  lat_bottom: 4.75
  lon_left: -74.11
  lon_right: -74.03
  country: CO
  priority: 1
- name: bogota_n_e
  lat_top: 4.83
  lat_bottom: 4.75
  lon_left: -74.03
  lon_right: -73.95
  country: CO
  priority: 1
- name: bogota_n_w
  lat_top: 4.83
  lat_bottom: 4.75
  lon_left: -74.19
  lon_right: -74.11
  country: CO
  priority: 1
- name: bogota_s
  lat_top: 4.67
  lat_bottom: 4.59
  lon_left: -74.11
  lon_right: -74.03
  country: CO
  priority: 1
- name: bogota_s_e
  lat_top: 4.67
  lat_bottom: 4.59
  lon_left: -74.03
  lon_right: -73.95
  country: CO
  priority: 1
- name: bogota_s_w
  lat_top: 4.67
  lat_bottom: 4.59
  lon_left: -74.19
  lon_right: -74.11
  country: CO
  priority: 1
- name: bogota_w
  lat_top: 4.75
  lat_bottom: 4.67
  lon_left: -74.19
  lon_right: -74.11
  country: CO
  priority: 1
- name: boston
  lat_top: 42.4
  lat_bottom: 42.32
  lon_left: -71.1
  lon_right: -71.02
  country: US
  priority: 1
- name: boston_e
  lat_top: 42.4
  lat_bottom: 42.32
  lon_left: -71.02
  lon_right: -70.94
  country: US
  priority: 1
- name: boston_n
  lat_top: 42.48
  lat_bottom: 42.4
  lon_left: -71.1
  lon_right: -71.02
  country: US
  priority: 1
- name: boston_n_e
  lat_top: 42.48
  lat_bottom: 42.4
  lon_left: -71.02
  lon_right: -70.94
  country: US
  priority: 1
- name: boston_n_w
  lat_top: 42.48
  lat_bottom: 42.4
  lon_left: -71.18
  lon_right: -71.1
  country: US
  priority: 1
- name: boston_s
  lat_top: 42.32
  lat_bottom: 42.24
  lon_left: -71.1
  lon_right: -71.02
  country: US
  priority: 1
- name: boston_s_e
  lat_top: 42.32
  lat_bottom: 42.24
  lon_left: -71.02
  lon_right: -70.94
  country: US
  priority: 1
- name: boston_s_w
  lat_top: 42.32
  lat_bottom: 42.24
  lon_left: -71.18
  lon_right: -71.1
  country: US
  priority: 1
- name: boston_w
  lat_top: 42.4
  lat_bottom: 42.32
  lon_left: -71.18
  lon_right: -71.1
  country: US
  priority: 1
- name: brasilia
  lat_top: -15.75
  lat_bottom: -15.83
  lon_left: -47.92
  lon_right: -47.84
  country: BR
  priority: 1
- name: brasilia_e
  lat_top: -15.75
  lat_bottom: -15.83
  lon_left: -47.84
  lon_right: -47.76
  country: BR
  priority: 1
- name: brasilia_n
  lat_top: -15.67
  lat_bottom: -15.75
  lon_left: -47.92
  lon_right: -47.84
  country: BR
  priority: 1
- name: brasilia_n_e
  lat_top: -15.67
  lat_bottom: -15.75
  lon_left: -47.84
  lon_right: -47.76
  country: BR
  priority: 1
- name: brasilia_n_w
  lat_top: -15.67
  lat_bottom: -15.75
  lon_left: -48.0
  lon_right: -47.92
  country: BR
  priority: 1
- name: brasilia_s
  lat_top: -15.83
  lat_bottom: -15.91
  lon_left: -47.92
  lon_right: -47.84
  country: BR
  priority: 1
- name: brasilia_s_e
  lat_top: -15.83
  lat_bottom: -15.91
  lon_left: -47.84
  lon_right: -47.76
  country: BR
  priority: 1
- name: brasilia_s_w
  lat_top: -15.83
  lat_bottom: -15.91
  lon_left: -48.0
  lon_right: -47.92
  country: BR
  priority: 1
- name: brasilia_w
  lat_top: -15.75
  lat_bottom: -15.83
  lon_left: -48.0
  lon_right: -47.92
  country: BR
  priority: 1
- name: buenos_aires
  lat_top: -34.56
  lat_bottom: -34.64
  lon_left: -58.42
  lon_right: -58.34
  country: AR
  priority: 1
- name: buenos_aires_e
  lat_top: -34.56
  lat_bottom: -34.64
  lon_left: -58.34
  lon_right: -58.26
  country: AR
  priority: 1
- name: buenos_aires_n
  lat_top: -34.48
  lat_bottom: -34.56
  lon_left: -58.42
  lon_right: -58.34
  country: AR
  priority: 1
- name: buenos_aires_n_e
  lat_top: -34.48
  lat_bottom: -34.56
  lon_left: -58.34
  lon_right: -58.26
  country: AR
  priority: 1
- name: buenos_aires_n_w
  lat_top: -34.48
  lat_bottom: -34.56
  lon_left: -58.5
  lon_right: -58.42
  country: AR
  priority: 1
- name: buenos_aires_s
  lat_top: -34.64
  lat_bottom: -34.72
  lon_left: -58.42
  lon_right: -58.34
  country: AR
  priority: 1
- name: buenos_aires_s_e
  lat_top: -34.64
  lat_bottom: -34.72
  lon_left: -58.34
  lon_right: -58.26
  country: AR
  priority: 1
- name: buenos_aires_s_w
  lat_top: -34.64
  lat_bottom: -34.72
  lon_left: -58.5
  lon_right: -58.42
  country: AR
  priority: 1
- name: buenos_aires_w
  lat_top: -34.56
  lat_bottom: -34.64
  lon_left: -58.5
  lon_right: -58.42
  country: AR
  priority: 1
- name: calgary
  lat_top: 51.09
  lat_bottom: 51.01
  lon_left: -114.11
  lon_right: -114.03
  country: CA
  priority: 1
- name: calgary_e
  lat_top: 51.09
  lat_bottom: 51.01
  lon_left: -114.03
  lon_right: -113.95
  country: CA
  priority: 1
- name: calgary_n
  lat_top: 51.17
  lat_bottom: 51.09
  lon_left: -114.11
  lon_right: -114.03
  country: CA
  priority: 1
- name: calgary_n_e
  lat_top: 51.17
  lat_bottom: 51.09
  lon_left: -114.03
  lon_right: -113.95
  country: CA
  priority: 1
- name: calgary_n_w
  lat_top: 51.17
  lat_bottom: 51.09
  lon_left: -114.19
  lon_right: -114.11
  country: CA
  priority: 1
- name: calgary_s
  lat_top: 51.01
  lat_bottom: 50.93
  lon_left: -114.11
  lon_right: -114.03
  country: CA
  priority: 1
- name: calgary_s_e
  lat_top: 51.01
  lat_bottom: 50.93
  lon_left: -114.03
  lon_right: -113.95
  country: CA
  priority: 1
- name: calgary_s_w
  lat_top: 51.01
  lat_bottom: 50.93
  lon_left: -114.19
  lon_right: -114.11
  country: CA
  priority: 1
- name: calgary_w
  lat_top: 51.09
  lat_bottom: 51.01
  lon_left: -114.19
  lon_right: -114.11
  country: CA
  priority: 1
- name: cali
  lat_top: 3.49
  lat_bottom: 3.41
  lon_left: -76.57
  lon_right: -76.49
  country: CO
  priority: 1
- name: cali_e
  lat_top: 3.49
  lat_bottom: 3.41
  lon_left: -76.49
  lon_right: -76.41
  country: CO
  priority: 1
- name: cali_n
  lat_top: 3.57
  lat_bottom: 3.49
  lon_left: -76.57
  lon_right: -76.49
  country: CO
  priority: 1
- name: cali_n_e
  lat_top: 3.57
  lat_bottom: 3.49
  lon_left: -76.49
  lon_right: -76.41
  country: CO
  priority: 1
- name: cali_n_w
  lat_top: 3.57
  lat_bottom: 3.49
  lon_left: -76.65
  lon_right: -76.57
  country: CO
  priority: 1
- name: cali_s
  lat_top: 3.41
  lat_bottom: 3.33
  lon_left: -76.57
  lon_right: -76.49
  country: CO
  priority: 1
- name: cali_s_e
  lat_top: 3.41
  lat_bottom: 3.33
  lon_left: -76.49
  lon_right: -76.41
  country: CO
  priority: 1
- name: cali_s_w
  lat_top: 3.41
  lat_bottom: 3.33
  lon_left: -76.65
  lon_right: -76.57
  country: CO
  priority: 1
- name: cali_w
  lat_top: 3.49
  lat_bottom: 3.41
  lon_left: -76.65
  lon_right: -76.57
  country: CO
  priority: 1
- name: cancun
  lat_top: 21.2
  lat_bottom: 21.12
  lon_left: -86.89
  lon_right: -86.81
  country: MX
  priority: 1
- name: cancun_e
  lat_top: 21.2
  lat_bottom: 21.12
  lon_left: -86.81
  lon_right: -86.73
  country: MX
  priority: 1
- name: cancun_n
  lat_top: 21.28
  lat_bottom: 21.2
  lon_left: -86.89
  lon_right: -86.81
  country: MX
  priority: 1
- name: cancun_n_e
  lat_top: 21.28
  lat_bottom: 21.2
  lon_left: -86.81
  lon_right: -86.73
  country: MX
  priority: 1
- name: cancun_n_w
  lat_top: 21.28
  lat_bottom: 21.2
  lon_left: -86.97
  lon_right: -86.89
  country: MX
  priority: 1
- name: cancun_s
  lat_top: 21.12
  lat_bottom: 21.04
  lon_left: -86.89
  lon_right: -86.81
  country: MX
  priority: 1
- name: cancun_s_e
  lat_top: 21.12
  lat_bottom: 21.04
  lon_left: -86.81
  lon_right: -86.73
  country: MX
  priority: 1
- name: cancun_s_w
  lat_top: 21.12
  lat_bottom: 21.04
  lon_left: -86.97
  lon_right: -86.89
  country: MX
  priority: 1
- name: cancun_w
  lat_top: 21.2
  lat_bottom: 21.12
  lon_left: -86.97
  lon_right: -86.89
  country: MX
  priority: 1
- name: caracas
  lat_top: 10.53
  lat_bottom: 10.45
  lon_left: -66.92
  lon_right: -66.84
  country: VE
  priority: 1
- name: caracas_e
  lat_top: 10.53
  lat_bottom: 10.45
  lon_left: -66.84
  lon_right: -66.76
  country: VE
  priority: 1
- name: caracas_n
  lat_top: 10.61
  lat_bottom: 10.53
  lon_left: -66.92
  lon_right: -66.84
  country: VE
  priority: 1
- name: caracas_n_e
  lat_top: 10.61
  lat_bottom: 10.53
  lon_left: -66.84
  lon_right: -66.76
  country: VE
  priority: 1
- name: caracas_n_w
  lat_top: 10.61
  lat_bottom: 10.53
  lon_left: -67.0
  lon_right: -66.92
  country: VE
  priority: 1
- name: caracas_s
  lat_top: 10.45
  lat_bottom: 10.37
  lon_left: -66.92
  lon_right: -66.84
  country: VE
  priority: 1
- name: caracas_s_e
  lat_top: 10.45
  lat_bottom: 10.37
  lon_left: -66.84
  lon_right: -66.76
  country: VE
  priority: 1
- name: caracas_s_w
  lat_top: 10.45
  lat_bottom: 10.37
  lon_left: -67.0
  lon_right: -66.92
  country: VE
  priority: 1
- name: caracas_w
  lat_top: 10.53
  lat_bottom: 10.45
  lon_left: -67.0
  lon_right: -66.92
  country: VE
  priority: 1
- name: charlotte
  lat_top: 35.27
  lat_bottom: 35.19
  lon_left: -80.88
  lon_right: -80.8
  country: US
  priority: 1
- name: charlotte_e
  lat_top: 35.27
  lat_bottom: 35.19
  lon_left: -80.8
  lon_right: -80.72
  country: US
  priority: 1
- name: charlotte_n
  lat_top: 35.35
  lat_bottom: 35.27
  lon_left: -80.88
  lon_right: -80.8
  country: US
  priority: 1
- name: charlotte_n_e
  lat_top: 35.35
  lat_bottom: 35.27
  lon_left: -80.8
  lon_right: -80.72
  country: US
  priority: 1
- name: charlotte_n_w
  lat_top: 35.35
  lat_bottom: 35.27
  lon_left: -80.96
  lon_right: -80.88
  country: US
  priority: 1
- name: charlotte_s
  lat_top: 35.19
  lat_bottom: 35.11
  lon_left: -80.88
  lon_right: -80.8
  country: US
  priority: 1
- name: charlotte_s_e
  lat_top: 35.19
  lat_bottom: 35.11
  lon_left: -80.8
  lon_right: -80.72
  country: US
  priority: 1
- name: charlotte_s_w
  lat_top: 35.19
  lat_bottom: 35.11
  lon_left: -80.96
  lon_right: -80.88
  country: US
  priority: 1
- name: charlotte_w
  lat_top: 35.27
  lat_bottom: 35.19
  lon_left: -80.96
  lon_right: -80.88
  country: US
  priority: 1
- name: chicago
  lat_top: 41.92
  lat_bottom: 41.84
  lon_left: -87.67
  lon_right: -87.59
  country: US
  priority: 1
- name: chicago_e
  lat_top: 41.92
  lat_bottom: 41.84
  lon_left: -87.59
  lon_right: -87.51
  country: US
  priority: 1
- name: chicago_n
  lat_top: 42.0
  lat_bottom: 41.92
  lon_left: -87.67
  lon_right: -87.59
  country: US
  priority: 1
- name: chicago_n_e
  lat_top: 42.0
  lat_bottom: 41.92
  lon_left: -87.59
  lon_right: -87.51
  country: US
  priority: 1
- name: chicago_n_w
  lat_top: 42.0
  lat_bottom: 41.92
  lon_left: -87.75
  lon_right: -87.67
  country: US
  priority: 1
- name: chicago_s
  lat_top: 41.84
  lat_bottom: 41.76
  lon_left: -87.67
  lon_right: -87.59
  country: US
  priority: 1
- name: chicago_s_e
  lat_top: 41.84
  lat_bottom: 41.76
  lon_left: -87.59
  lon_right: -87.51
  country: US
  priority: 1
- name: chicago_s_w
  lat_top: 41.84
  lat_bottom: 41.76
  lon_left: -87.75
  lon_right: -87.67
  country: US
  priority: 1
- name: chicago_w
  lat_top: 41.92
  lat_bottom: 41.84
  lon_left: -87.75
  lon_right: -87.67
  country: US
  priority: 1
- name: cincinnati
  lat_top: 39.14
  lat_bottom: 39.06
  lon_left: -84.55
  lon_right: -84.47
  country: US
  priority: 1
- name: cincinnati_e
  lat_top: 39.14
  lat_bottom: 39.06
  lon_left: -84.47
  lon_right: -84.39
  country: US
  priority: 1
- name: cincinnati_n
  lat_top: 39.22
  lat_bottom: 39.14
  lon_left: -84.55
  lon_right: -84.47
  country: US
  priority: 1
- name: cincinnati_n_e
  lat_top: 39.22
  lat_bottom: 39.14
  lon_left: -84.47
  lon_right: -84.39
  country: US
  priority: 1
- name: cincinnati_n_w
  lat_top: 39.22
  lat_bottom: 39.14
  lon_left: -84.63
  lon_right: -84.55
  country: US
  priority: 1
- name: cincinnati_s
  lat_top: 39.06
  lat_bottom: 38.98
  lon_left: -84.55
  lon_right: -84.47
  country: US
  priority: 1
- name: cincinnati_s_e
  lat_top: 39.06
  lat_bottom: 38.98
  lon_left: -84.47
  lon_right: -84.39
  country: US
  priority: 1
- name: cincinnati_s_w
  lat_top: 39.06
  lat_bottom: 38.98
  lon_left: -84.63
  lon_right: -84.55
  country: US
  priority: 1
- name: cincinnati_w
  lat_top: 39.14
  lat_bottom: 39.06
  lon_left: -84.63
  lon_right: -84.55
  country: US
  priority: 1
- name: cordoba_ar
  lat_top: -31.38
  lat_bottom: -31.46
  lon_left: -64.22
  lon_right: -64.14
  country: AR
  priority: 1
- name: cordoba_ar_e
  lat_top: -31.38
  lat_bottom: -31.46
  lon_left: -64.14
  lon_right: -64.06
  country: AR
  priority: 1
- name: cordoba_ar_n
  lat_top: -31.3
  lat_bottom: -31.38
  lon_left: -64.22
  lon_right: -64.14
  country: AR
  priority: 1
- name: cordoba_ar_n_e
  lat_top: -31.3
  lat_bottom: -31.38
  lon_left: -64.14
  lon_right: -64.06
  country: AR
  priority: 1
- name: cordoba_ar_n_w
  lat_top: -31.3
  lat_bottom: -31.38
  lon_left: -64.3
  lon_right: -64.22
  country: AR
  priority: 1
- name: cordoba_ar_s
  lat_top: -31.46
  lat_bottom: -31.54
  lon_left: -64.22
  lon_right: -64.14
  country: AR
  priority: 1
- name: cordoba_ar_s_e
  lat_top: -31.46
  lat_bottom: -31.54
  lon_left: -64.14
  lon_right: -64.06
  country: AR
  priority: 1
- name: cordoba_ar_s_w
  lat_top: -31.46
  lat_bottom: -31.54
  lon_left: -64.3
  lon_right: -64.22
  country: AR
  priority: 1
- name: cordoba_ar_w
  lat_top: -31.38
  lat_bottom: -31.46
  lon_left: -64.3
  lon_right: -64.22
  country: AR
  priority: 1
- name: curitiba
  lat_top: -25.39
  lat_bottom: -25.47
  lon_left: -49.31
  lon_right: -49.23
  country: BR
  priority: 1
- name: curitiba_e
  lat_top: -25.39
  lat_bottom: -25.47
  lon_left: -49.23
  lon_right: -49.15
  country: BR
  priority: 1
- name: curitiba_n
  lat_top: -25.31
  lat_bottom: -25.39
  lon_left: -49.31
  lon_right: -49.23
  country: BR
  priority: 1
- name: curitiba_n_e
  lat_top: -25.31
  lat_bottom: -25.39
  lon_left: -49.23
  lon_right: -49.15
  country: BR
  priority: 1
- name: curitiba_n_w
  lat_top: -25.31
  lat_bottom: -25.39
  lon_left: -49.39
  lon_right: -49.31
  country: BR
  priority: 1
- name: curitiba_s
  lat_top: -25.47
  lat_bottom: -25.55
  lon_left: -49.31
  lon_right: -49.23
  country: BR
  priority: 1
- name: curitiba_s_e
  lat_top: -25.47
  lat_bottom: -25.55
  lon_left: -49.23
  lon_right: -49.15
  country: BR
  priority: 1
- name: curitiba_s_w
  lat_top: -25.47
  lat_bottom: -25.55
  lon_left: -49.39
  lon_right: -49.31
  country: BR
  priority: 1
- name: curitiba_w
  lat_top: -25.39
  lat_bottom: -25.47
  lon_left: -49.39
  lon_right: -49.31
  country: BR
  priority: 1
- name: dallas
  lat_top: 32.82
  lat_bottom: 32.74
  lon_left: -96.84
  lon_right: -96.76
  country: US
  priority: 1
- name: dallas_e
  lat_top: 32.82
  lat_bottom: 32.74
  lon_left: -96.76
  lon_right: -96.68
  country: US
  priority: 1
- name: dallas_n
  lat_top: 32.9
  lat_bottom: 32.82
  lon_left: -96.84
  lon_right: -96.76
  country: US
  priority: 1
- name: dallas_n_e
  lat_top: 32.9
  lat_bottom: 32.82
  lon_left: -96.76
  lon_right: -96.68
  country: US
  priority: 1
- name: dallas_n_w
  lat_top: 32.9
  lat_bottom: 32.82
  lon_left: -96.92
  lon_right: -96.84
  country: US
  priority: 1
- name: dallas_s
  lat_top: 32.74
  lat_bottom: 32.66
  lon_left: -96.84
  lon_right: -96.76
  country: US
  priority: 1
- name: dallas_s_e
  lat_top: 32.74
  lat_bottom: 32.66
  lon_left: -96.76
  lon_right: -96.68
  country: US
  priority: 1
- name: dallas_s_w
  lat_top: 32.74
  lat_bottom: 32.66
  lon_left: -96.92
  lon_right: -96.84
  country: US
  priority: 1
- name: dallas_w
  lat_top: 32.82
  lat_bottom: 32.74
  lon_left: -96.92
  lon_right: -96.84
  country: US
  priority: 1
- name: denver
  lat_top: 39.78
  lat_bottom: 39.7
  lon_left: -105.03
  lon_right: -104.95
  country: US
  priority: 1
- name: denver_e
  lat_top: 39.78
  lat_bottom: 39.7
  lon_left: -104.95
  lon_right: -104.87
  country: US
  priority: 1
- name: denver_n
  lat_top: 39.86
  lat_bottom: 39.78
  lon_left: -105.03
  lon_right: -104.95
  country: US
  priority: 1
- name: denver_n_e
  lat_top: 39.86
  lat_bottom: 39.78
  lon_left: -104.95
  lon_right: -104.87
  country: US
  priority: 1
- name: denver_n_w
  lat_top: 39.86
  lat_bottom: 39.78
  lon_left: -105.11
  lon_right: -105.03
  country: US
  priority: 1
- name: denver_s
  lat_top: 39.7
  lat_bottom: 39.62
  lon_left: -105.03
  lon_right: -104.95
  country: US
  priority: 1
- name: denver_s_e
  lat_top: 39.7
  lat_bottom: 39.62
  lon_left: -104.95
  lon_right: -104.87
  country: US
  priority: 1
- name: denver_s_w
  lat_top: 39.7
  lat_bottom: 39.62
  lon_left: -105.11
  lon_right: -105.03
  country: US
  priority: 1
- name: denver_w
  lat_top: 39.78
  lat_bottom: 39.7
  lon_left: -105.11
  lon_right: -105.03
  country: US
  priority: 1
- name: detroit
  lat_top: 42.37
  lat_bottom: 42.29
  lon_left: -83.09
  lon_right: -83.01
  country: US
  priority: 1
- name: detroit_e
  lat_top: 42.37
  lat_bottom: 42.29
  lon_left: -83.01
  lon_right: -82.93
  country: US
  priority: 1
- name: detroit_n
  lat_top: 42.45
  lat_bottom: 42.37
  lon_left: -83.09
  lon_right: -83.01
  country: US
  priority: 1
- name: detroit_n_e
  lat_top: 42.45
  lat_bottom: 42.37
  lon_left: -83.01
  lon_right: -82.93
  country: US
  priority: 1
- name: detroit_n_w
  lat_top: 42.45
  lat_bottom: 42.37
  lon_left: -83.17
  lon_right: -83.09
  country: US
  priority: 1
- name: detroit_s
  lat_top: 42.29
  lat_bottom: 42.21
  lon_left: -83.09
  lon_right: -83.01
  country: US
  priority: 1
- name: detroit_s_e
  lat_top: 42.29
  lat_bottom: 42.21
  lon_left: -83.01
  lon_right: -82.93
  country: US
  priority: 1
- name: detroit_s_w
  lat_top: 42.29
  lat_bottom: 42.21
  lon_left: -83.17
  lon_right: -83.09
  country: US
  priority: 1
- name: detroit_w
  lat_top: 42.37
  lat_bottom: 42.29
  lon_left: -83.17
  lon_right: -83.09
  country: US
  priority: 1
- name: edmonton
  lat_top: 53.59
  lat_bottom: 53.51
  lon_left: -113.53
  lon_right: -113.45
  country: CA
  priority: 1
- name: edmonton_e
  lat_top: 53.59
  lat_bottom: 53.51
  lon_left: -113.45
  lon_right: -113.37
  country: CA
  priority: 1
- name: edmonton_n
  lat_top: 53.67
  lat_bottom: 53.59
  lon_left: -113.53
  lon_right: -113.45
  country: CA
  priority: 1
- name: edmonton_n_e
  lat_top: 53.67
  lat_bottom: 53.59
  lon_left: -113.45
  lon_right: -113.37
  country: CA
  priority: 1
- name: edmonton_n_w
  lat_top: 53.67
  lat_bottom: 53.59
  lon_left: -113.61
  lon_right: -113.53
  country: CA
  priority: 1
- name: edmonton_s
  lat_top: 53.51
  lat_bottom: 53.43
  lon_left: -113.53
  lon_right: -113.45
  country: CA
  priority: 1
- name: edmonton_s_e
  lat_top: 53.51
  lat_bottom: 53.43
  lon_left: -113.45
  lon_right: -113.37
  country: CA
  priority: 1
- name: edmonton_s_w
  lat_top: 53.51
  lat_bottom: 53.43
  lon_left: -113.61
  lon_right: -113.53
  country: CA
  priority: 1
- name: edmonton_w
  lat_top: 53.59
  lat_bottom: 53.51
  lon_left: -113.61
  lon_right: -113.53
  country: CA
  priority: 1
- name: fortaleza
  lat_top: -3.69
  lat_bottom: -3.77
  lon_left: -38.57
  lon_right: -38.49
  country: BR
  priority: 1
- name: fortaleza_e
  lat_top: -3.69
  lat_bottom: -3.77
  lon_left: -38.49
  lon_right: -38.41
  country: BR
  priority: 1
- name: fortaleza_n
  lat_top: -3.61
  lat_bottom: -3.69
  lon_left: -38.57
  lon_right: -38.49
  country: BR
  priority: 1
- name: fortaleza_n_e
  lat_top: -3.61
  lat_bottom: -3.69
  lon_left: -38.49
  lon_right: -38.41
  country: BR
  priority: 1
- name: fortaleza_n_w
  lat_top: -3.61
  lat_bottom: -3.69
  lon_left: -38.65
  lon_right: -38.57
  country: BR
  priority: 1
- name: fortaleza_s
  lat_top: -3.77
  lat_bottom: -3.85
  lon_left: -38.57
  lon_right: -38.49
  country: BR
  priority: 1
- name: fortaleza_s_e
  lat_top: -3.77
  lat_bottom: -3.85
  lon_left: -38.49
  lon_right: -38.41
  country: BR
  priority: 1
- name: fortaleza_s_w
  lat_top: -3.77
  lat_bottom: -3.85
  lon_left: -38.65
  lon_right: -38.57
  country: BR
  priority: 1
- name: fortaleza_w
  lat_top: -3.69
  lat_bottom: -3.77
  lon_left: -38.65
  lon_right: -38.57
  country: BR
  priority: 1
- name: guadalajara
  lat_top: 20.71
  lat_bottom: 20.63
  lon_left: -103.39
  lon_right: -103.31
  country: MX
  priority: 1
- name: guadalajara_e
  lat_top: 20.71
  lat_bottom: 20.63
  lon_left: -103.31
  lon_right: -103.23
  country: MX
  priority: 1
- name: guadalajara_n
  lat_top: 20.79
  lat_bottom: 20.71
  lon_left: -103.39
  lon_right: -103.31
  country: MX
  priority: 1
- name: guadalajara_n_e
  lat_top: 20.79
  lat_bottom: 20.71
  lon_left: -103.31
  lon_right: -103.23
  country: MX
  priority: 1
- name: guadalajara_n_w
  lat_top: 20.79
  lat_bottom: 20.71
  lon_left: -103.47
  lon_right: -103.39
  country: MX
  priority: 1
- name: guadalajara_s
  lat_top: 20.63
  lat_bottom: 20.55
  lon_left: -103.39
  lon_right: -103.31
  country: MX
  priority: 1
- name: guadalajara_s_e
  lat_top: 20.63
  lat_bottom: 20.55
  lon_left: -103.31
  lon_right: -103.23
  country: MX
  priority: 1
- name: guadalajara_s_w
  lat_top: 20.63
  lat_bottom: 20.55
  lon_left: -103.47
  lon_right: -103.39
  country: MX
  priority: 1
- name: guadalajara_w
  lat_top: 20.71
  lat_bottom: 20.63
  lon_left: -103.47
  lon_right: -103.39
  country: MX
  priority: 1
- name: guatemala_city
  lat_top: 14.67
  lat_bottom: 14.59
  lon_left: -90.55
  lon_right: -90.47
  country: GT
  priority: 1
- name: guatemala_city_e
  lat_top: 14.67
  lat_bottom: 14.59
  lon_left: -90.47
  lon_right: -90.39
  country: GT
  priority: 1
- name: guatemala_city_n
  lat_top: 14.75
  lat_bottom: 14.67
  lon_left: -90.55
  lon_right: -90.47
  country: GT
  priority: 1
- name: guatemala_city_n_e
  lat_top: 14.75
  lat_bottom: 14.67
  lon_left: -90.47
  lon_right: -90.39
  country: GT
  priority: 1
- name: guatemala_city_n_w
  lat_top: 14.75
  lat_bottom: 14.67
  lon_left: -90.63
  lon_right: -90.55
  country: GT
  priority: 1
- name: guatemala_city_s
  lat_top: 14.59
  lat_bottom: 14.51
  lon_left: -90.55
  lon_right: -90.47
  country: GT
  priority: 1
- name: guatemala_city_s_e
  lat_top: 14.59
  lat_bottom: 14.51
  lon_left: -90.47
  lon_right: -90.39
  country: GT
  priority: 1
- name: guatemala_city_s_w
  lat_top: 14.59
  lat_bottom: 14.51
  lon_left: -90.63
  lon_right: -90.55
  country: GT
  priority: 1
- name: guatemala_city_w
  lat_top: 14.67
  lat_bottom: 14.59
  lon_left: -90.63
  lon_right: -90.55
  country: GT
  priority: 1
- name: guayaquil
  lat_top: -2.15
  lat_bottom: -2.23
  lon_left: -79.93
  lon_right: -79.85
  country: EC
  priority: 1
- name: guayaquil_e
  lat_top: -2.15
  lat_bottom: -2.23
  lon_left: -79.85
  lon_right: -79.77
  country: EC
  priority: 1
- name: guayaquil_n
  lat_top: -2.07
  lat_bottom: -2.15
  lon_left: -79.93
  lon_right: -79.85
  country: EC
  priority: 1
- name: guayaquil_n_e
  lat_top: -2.07
  lat_bottom: -2.15
  lon_left: -79.85
  lon_right: -79.77
  country: EC
  priority: 1
- name: guayaquil_n_w
  lat_top: -2.07
  lat_bottom: -2.15
  lon_left: -80.01
  lon_right: -79.93
  country: EC
  priority: 1
- name: guayaquil_s
  lat_top: -2.23
  lat_bottom: -2.31
  lon_left: -79.93
  lon_right: -79.85
  country: EC
  priority: 1
- name: guayaquil_s_e
  lat_top: -2.23
  lat_bottom: -2.31
  lon_left: -79.85
  lon_right: -79.77
  country: EC
  priority: 1
- name: guayaquil_s_w
  lat_top: -2.23
  lat_bottom: -2.31
  lon_left: -80.01
  lon_right: -79.93
  country: EC
  priority: 1
- name: guayaquil_w
  lat_top: -2.15
  lat_bottom: -2.23
  lon_left: -80.01
  lon_right: -79.93
  country: EC
  priority: 1
- name: havana
  lat_top: 23.15
  lat_bottom: 23.07
  lon_left: -82.41
  lon_right: -82.33
  country: CU
  priority: 1
- name: havana_e
  lat_top: 23.15
  lat_bottom: 23.07
  lon_left: -82.33
  lon_right: -82.25
  country: CU
  priority: 1
- name: havana_n
  lat_top: 23.23
  lat_bottom: 23.15
  lon_left: -82.41
  lon_right: -82.33
  country: CU
  priority: 1
- name: havana_n_e
  lat_top: 23.23
  lat_bottom: 23.15
  lon_left: -82.33
  lon_right: -82.25
  country: CU
  priority: 1
- name: havana_n_w
  lat_top: 23.23
  lat_bottom: 23.15
  lon_left: -82.49
  lon_right: -82.41
  country: CU
  priority: 1
- name: havana_s
  lat_top: 23.07
  lat_bottom: 22.99
  lon_left: -82.41
  lon_right: -82.33
  country: CU
  priority: 1
- name: havana_s_e
  lat_top: 23.07
  lat_bottom: 22.99
  lon_left: -82.33
  lon_right: -82.25
  country: CU
  priority: 1
- name: havana_s_w
  lat_top: 23.07
  lat_bottom: 22.99
  lon_left: -82.49
  lon_right: -82.41
  country: CU
  priority: 1
- name: havana_w
  lat_top: 23.15
  lat_bottom: 23.07
  lon_left: -82.49
  lon_right: -82.41
  country: CU
  priority: 1
- name: houston
  lat_top: 29.8
  lat_bottom: 29.72
  lon_left: -95.41
  lon_right: -95.33
  country: US
  priority: 1
- name: houston_e
  lat_top: 29.8
  lat_bottom: 29.72
  lon_left: -95.33
  lon_right: -95.25
  country: US
  priority: 1
- name: houston_n
  lat_top: 29.88
  lat_bottom: 29.8
  lon_left: -95.41
  lon_right: -95.33
  country: US
  priority: 1
- name: houston_n_e
  lat_top: 29.88
  lat_bottom: 29.8
  lon_left: -95.33
  lon_right: -95.25
  country: US
  priority: 1
- name: houston_n_w
  lat_top: 29.88
  lat_bottom: 29.8
  lon_left: -95.49
  lon_right: -95.41
  country: US
  priority: 1
- name: houston_s
  lat_top: 29.72
  lat_bottom: 29.64
  lon_left: -95.41
  lon_right: -95.33
  country: US
  priority: 1
- name: houston_s_e
  lat_top: 29.72
  lat_bottom: 29.64
  lon_left: -95.33
  lon_right: -95.25
  country: US
  priority: 1
- name: houston_s_w
  lat_top: 29.72
  lat_bottom: 29.64
  lon_left: -95.49
  lon_right: -95.41
  country: US
  priority: 1
- name: houston_w
  lat_top: 29.8
  lat_bottom: 29.72
  lon_left: -95.49
  lon_right: -95.41
  country: US
  priority: 1
- name: jacksonville
  lat_top: 30.37
  lat_bottom: 30.29
  lon_left: -81.7
  lon_right: -81.62
  country: US
  priority: 1
- name: jacksonville_e
  lat_top: 30.37
  lat_bottom: 30.29
  lon_left: -81.62
  lon_right: -81.54
  country: US
  priority: 1
- name: jacksonville_n
  lat_top: 30.45
  lat_bottom: 30.37
  lon_left: -81.7
  lon_right: -81.62
  country: US
  priority: 1
- name: jacksonville_n_e
  lat_top: 30.45
  lat_bottom: 30.37
  lon_left: -81.62
  lon_right: -81.54
  country: US
  priority: 1
- name: jacksonville_n_w
  lat_top: 30.45
  lat_bottom: 30.37
  lon_left: -81.78
  lon_right: -81.7
  country: US
  priority: 1
- name: jacksonville_s
  lat_top: 30.29
  lat_bottom: 30.21
  lon_left: -81.7
  lon_right: -81.62
  country: US
  priority: 1
- name: jacksonville_s_e
  lat_top: 30.29
  lat_bottom: 30.21
  lon_left: -81.62
  lon_right: -81.54
  country: US
  priority: 1
- name: jacksonville_s_w
  lat_top: 30.29
  lat_bottom: 30.21
  lon_left: -81.78
  lon_right: -81.7
  country: US
  priority: 1
- name: jacksonville_w
  lat_top: 30.37
  lat_bottom: 30.29
  lon_left: -81.78
  lon_right: -81.7
  country: US
  priority: 1
- name: juarez
  lat_top: 31.73
  lat_bottom: 31.65
  lon_left: -106.46
  lon_right: -106.38
  country: MX
  priority: 1
- name: juarez_e
  lat_top: 31.73
  lat_bottom: 31.65
  lon_left: -106.38
  lon_right: -106.3
  country: MX
  priority: 1
- name: juarez_n
  lat_top: 31.81
  lat_bottom: 31.73
  lon_left: -106.46
  lon_right: -106.38
  country: MX
  priority: 1
- name: juarez_n_e
  lat_top: 31.81
  lat_bottom: 31.73
  lon_left: -106.38
  lon_right: -106.3
  country: MX
  priority: 1
- name: juarez_n_w
  lat_top: 31.81
  lat_bottom: 31.73
  lon_left: -106.54
  lon_right: -106.46
  country: MX
  priority: 1
- name: juarez_s
  lat_top: 31.65
  lat_bottom: 31.57
  lon_left: -106.46
  lon_right: -106.38
  country: MX
  priority: 1
- name: juarez_s_e
  lat_top: 31.65
  lat_bottom: 31.57
  lon_left: -106.38
  lon_right: -106.3
  country: MX
  priority: 1
- name: juarez_s_w
  lat_top: 31.65
  lat_bottom: 31.57
  lon_left: -106.54
  lon_right: -106.46
  country: MX
  priority: 1
- name: juarez_w
  lat_top: 31.73
  lat_bottom: 31.65
  lon_left: -106.54
  lon_right: -106.46
  country: MX
  priority: 1
- name: las_vegas
  lat_top: 36.21
  lat_bottom: 36.13
  lon_left: -115.18
  lon_right: -115.1
  country: US
  priority: 1
- name: las_vegas_e
  lat_top: 36.21
  lat_bottom: 36.13
  lon_left: -115.1
  lon_right: -115.02
  country: US
  priority: 1
- name: las_vegas_n
  lat_top: 36.29
  lat_bottom: 36.21
  lon_left: -115.18
  lon_right: -115.1
  country: US
  priority: 1
- name: las_vegas_n_e
  lat_top: 36.29
  lat_bottom: 36.21
  lon_left: -115.1
  lon_right: -115.02
  country: US
  priority: 1
- name: las_vegas_n_w
  lat_top: 36.29
  lat_bottom: 36.21
  lon_left: -115.26
  lon_right: -115.18
  country: US
  priority: 1
- name: las_vegas_s
  lat_top: 36.13
  lat_bottom: 36.05
  lon_left: -115.18
  lon_right: -115.1
  country: US
  priority: 1
- name: las_vegas_s_e
  lat_top: 36.13
  lat_bottom: 36.05
  lon_left: -115.1
  lon_right: -115.02
  country: US
  priority: 1
- name: las_vegas_s_w
  lat_top: 36.13
  lat_bottom: 36.05
  lon_left: -115.26
  lon_right: -115.18
  country: US
  priority: 1
- name: las_vegas_w
  lat_top: 36.21
  lat_bottom: 36.13
  lon_left: -115.26
  lon_right: -115.18
  country: US
  priority: 1
- name: leon
  lat_top: 21.16
  lat_bottom: 21.08
  lon_left: -101.73
  lon_right: -101.65
  country: MX
  priority: 1
- name: leon_e
  lat_top: 21.16
  lat_bottom: 21.08
  lon_left: -101.65
  lon_right: -101.57
  country: MX
  priority: 1
- name: leon_n
  lat_top: 21.24
  lat_bottom: 21.16
  lon_left: -101.73
  lon_right: -101.65
  country: MX
  priority: 1
- name: leon_n_e
  lat_top: 21.24
  lat_bottom: 21.16
  lon_left: -101.65
  lon_right: -101.57
  country: MX
  priority: 1
- name: leon_n_w
  lat_top: 21.24
  lat_bottom: 21.16
  lon_left: -101.81
  lon_right: -101.73
  country: MX
  priority: 1
- name: leon_s
  lat_top: 21.08
  lat_bottom: 21.0
  lon_left: -101.73
  lon_right: -101.65
  country: MX
  priority: 1
- name: leon_s_e
  lat_top: 21.08
  lat_bottom: 21.0
  lon_left: -101.65
  lon_right: -101.57
  country: MX
  priority: 1
- name: leon_s_w
  lat_top: 21.08
  lat_bottom: 21.0
  lon_left: -101.81
  lon_right: -101.73
  country: MX
  priority: 1
- name: leon_w
  lat_top: 21.16
  lat_bottom: 21.08
  lon_left: -101.81
  lon_right: -101.73
  country: MX
  priority: 1
- name: lima
  lat_top: -12.01
  lat_bottom: -12.09
  lon_left: -77.08
  lon_right: -77.0
  country: PE
  priority: 1
- name: lima_e
  lat_top: -12.01
  lat_bottom: -12.09
  lon_left: -77.0
  lon_right: -76.92
  country: PE
  priority: 1
- name: lima_n
  lat_top: -11.93
  lat_bottom: -12.01
  lon_left: -77.08
  lon_right: -77.0
  country: PE
  priority: 1
- name: lima_n_e
  lat_top: -11.93
  lat_bottom: -12.01
  lon_left: -77.0
  lon_right: -76.92
  country: PE
  priority: 1
- name: lima_n_w
  lat_top: -11.93
  lat_bottom: -12.01
  lon_left: -77.16
  lon_right: -77.08
  country: PE
  priority: 1
- name: lima_s
  lat_top: -12.09
  lat_bottom: -12.17
  lon_left: -77.08
  lon_right: -77.0
  country: PE
  priority: 1
- name: lima_s_e
  lat_top: -12.09
  lat_bottom: -12.17
  lon_left: -77.0
  lon_right: -76.92
  country: PE
  priority: 1
- name: lima_s_w
  lat_top: -12.09
  lat_bottom: -12.17
  lon_left: -77.16
  lon_right: -77.08
  country: PE
  priority: 1
- name: lima_w
  lat_top: -12.01
  lat_bottom: -12.09
  lon_left: -77.16
  lon_right: -77.08
  country: PE
  priority: 1
- name: los_angeles
  lat_top: 34.09
  lat_bottom: 34.01
  lon_left: -118.28
  lon_right: -118.2
  country: US
  priority: 1
- name: los_angeles_e
  lat_top: 34.09
  lat_bottom: 34.01
  lon_left: -118.2
  lon_right: -118.12
  country: US
  priority: 1
- name: los_angeles_n
  lat_top: 34.17
  lat_bottom: 34.09
  lon_left: -118.28
  lon_right: -118.2
  country: US
  priority: 1
- name: los_angeles_n_e
  lat_top: 34.17
  lat_bottom: 34.09
  lon_left: -118.2
  lon_right: -118.12
  country: US
  priority: 1
- name: los_angeles_n_w
  lat_top: 34.17
  lat_bottom: 34.09
  lon_left: -118.36
  lon_right: -118.28
  country: US
  priority: 1
- name: los_angeles_s
  lat_top: 34.01
  lat_bottom: 33.93
  lon_left: -118.28
  lon_right: -118.2
  country: US
  priority: 1
- name: los_angeles_s_e
  lat_top: 34.01
  lat_bottom: 33.93
  lon_left: -118.2
  lon_right: -118.12
  country: US
  priority: 1
- name: los_angeles_s_w
  lat_top: 34.01
  lat_bottom: 33.93
  lon_left: -118.36
  lon_right: -118.28
  country: US
  priority: 1
- name: los_angeles_w
  lat_top: 34.09
  lat_bottom: 34.01
  lon_left: -118.36
  lon_right: -118.28
  country: US
  priority: 1
- name: maracaibo
  lat_top: 10.69
  lat_bottom: 10.61
  lon_left: -71.68
  lon_right: -71.6
  country: VE
  priority: 1
- name: maracaibo_e
  lat_top: 10.69
  lat_bottom: 10.61
  lon_left: -71.6
  lon_right: -71.52
  country: VE
  priority: 1
- name: maracaibo_n
  lat_top: 10.77
  lat_bottom: 10.69
  lon_left: -71.68
  lon_right: -71.6
  country: VE
  priority: 1
- name: maracaibo_n_e
  lat_top: 10.77
  lat_bottom: 10.69
  lon_left: -71.6
  lon_right: -71.52
  country: VE
  priority: 1
- name: maracaibo_n_w
  lat_top: 10.77
  lat_bottom: 10.69
  lon_left: -71.76
  lon_right: -71.68
  country: VE
  priority: 1
- name: maracaibo_s
  lat_top: 10.61
  lat_bottom: 10.53
  lon_left: -71.68
  lon_right: -71.6
  country: VE
  priority: 1
- name: maracaibo_s_e
  lat_top: 10.61
  lat_bottom: 10.53
  lon_left: -71.6
  lon_right: -71.52
  country: VE
  priority: 1
- name: maracaibo_s_w
  lat_top: 10.61
  lat_bottom: 10.53
  lon_left: -71.76
  lon_right: -71.68
  country: VE
  priority: 1
- name: maracaibo_w
  lat_top: 10.69
  lat_bottom: 10.61
  lon_left: -71.76
  lon_right: -71.68
  country: VE
  priority: 1
- name: medellin
  lat_top: 6.29
  lat_bottom: 6.21
  lon_left: -75.6
  lon_right: -75.52
  country: CO
  priority: 1
- name: medellin_e
  lat_top: 6.29
  lat_bottom: 6.21
  lon_left: -75.52
  lon_right: -75.44
  country: CO
  priority: 1
- name: medellin_n
  lat_top: 6.37
  lat_bottom: 6.29
  lon_left: -75.6
  lon_right: -75.52
  country: CO
  priority: 1
- name: medellin_n_e
  lat_top: 6.37
  lat_bottom: 6.29
  lon_left: -75.52
  lon_right: -75.44
  country: CO
  priority: 1
- name: medellin_n_w
  lat_top: 6.37
  lat_bottom: 6.29
  lon_left: -75.68
  lon_right: -75.6
  country: CO
  priority: 1
- name: medellin_s
  lat_top: 6.21
  lat_bottom: 6.13
  lon_left: -75.6
  lon_right: -75.52
  country: CO
  priority: 1
- name: medellin_s_e
  lat_top: 6.21
  lat_bottom: 6.13
  lon_left: -75.52
  lon_right: -75.44
  country: CO
  priority: 1
- name: medellin_s_w
  lat_top: 6.21
  lat_bottom: 6.13
  lon_left: -75.68
  lon_right: -75.6
  country: CO
  priority: 1
- name: medellin_w
  lat_top: 6.29
  lat_bottom: 6.21
  lon_left: -75.68
  lon_right: -75.6
  country: CO
  priority: 1
- name: mendoza
  lat_top: -32.85
  lat_bottom: -32.93
  lon_left: -68.88
  lon_right: -68.8
  country: AR
  priority: 1
- name: mendoza_e
  lat_top: -32.85
  lat_bottom: -32.93
  lon_left: -68.8
  lon_right: -68.72
  country: AR
  priority: 1
- name: mendoza_n
  lat_top: -32.77
  lat_bottom: -32.85
  lon_left: -68.88
  lon_right: -68.8
  country: AR
  priority: 1
- name: mendoza_n_e
  lat_top: -32.77
  lat_bottom: -32.85
  lon_left: -68.8
  lon_right: -68.72
  country: AR
  priority: 1
- name: mendoza_n_w
  lat_top: -32.77
  lat_bottom: -32.85
  lon_left: -68.96
  lon_right: -68.88
  country: AR
  priority: 1
- name: mendoza_s
  lat_top: -32.93
  lat_bottom: -33.01
  lon_left: -68.88
  lon_right: -68.8
  country: AR
  priority: 1
- name: mendoza_s_e
  lat_top: -32.93
  lat_bottom: -33.01
  lon_left: -68.8
  lon_right: -68.72
  country: AR
  priority: 1
- name: mendoza_s_w
  lat_top: -32.93
  lat_bottom: -33.01
  lon_left: -68.96
  lon_right: -68.88
  country: AR
  priority: 1
- name: mendoza_w
  lat_top: -32.85
  lat_bottom: -32.93
  lon_left: -68.96
  lon_right: -68.88
  country: AR
  priority: 1
- name: mexico_city
  lat_top: 19.47
  lat_bottom: 19.39
  lon_left: -99.17
  lon_right: -99.09
  country: MX
  priority: 1
- name: mexico_city_e
  lat_top: 19.47
  lat_bottom: 19.39
  lon_left: -99.09
  lon_right: -99.01
  country: MX
  priority: 1
- name: mexico_city_n
  lat_top: 19.55
  lat_bottom: 19.47
  lon_left: -99.17
  lon_right: -99.09
  country: MX
  priority: 1
- name: mexico_city_n_e
  lat_top: 19.55
  lat_bottom: 19.47
  lon_left: -99.09
  lon_right: -99.01
  country: MX
  priority: 1
- name: mexico_city_n_w
  lat_top: 19.55
  lat_bottom: 19.47
  lon_left: -99.25
  lon_right: -99.17
  country: MX
  priority: 1
- name: mexico_city_s
  lat_top: 19.39
  lat_bottom: 19.31
  lon_left: -99.17
  lon_right: -99.09
  country: MX
  priority: 1
- name: mexico_city_s_e
  lat_top: 19.39
  lat_bottom: 19.31
  lon_left: -99.09
  lon_right: -99.01
  country: MX
  priority: 1
- name: mexico_city_s_w
  lat_top: 19.39
  lat_bottom: 19.31
  lon_left: -99.25
  lon_right: -99.17
  country: MX
  priority: 1
- name: mexico_city_w
  lat_top: 19.47
  lat_bottom: 19.39
  lon_left: -99.25
  lon_right: -99.17
  country: MX
  priority: 1
- name: miami
  lat_top: 25.8
  lat_bottom: 25.72
  lon_left: -80.23
  lon_right: -80.15
  country: US
  priority: 1
- name: miami_e
  lat_top: 25.8
  lat_bottom: 25.72
  lon_left: -80.15
  lon_right: -80.07
  country: US
  priority: 1
- name: miami_n
  lat_top: 25.88
  lat_bottom: 25.8
  lon_left: -80.23
  lon_right: -80.15
  country: US
  priority: 1
- name: miami_n_e
  lat_top: 25.88
  lat_bottom: 25.8
  lon_left: -80.15
  lon_right: -80.07
  country: US
  priority: 1
- name: miami_n_w
  lat_top: 25.88
  lat_bottom: 25.8
  lon_left: -80.31
  lon_right: -80.23
  country: US
  priority: 1
- name: miami_s
  lat_top: 25.72
  lat_bottom: 25.64
  lon_left: -80.23
  lon_right: -80.15
  country: US
  priority: 1
- name: miami_s_e
  lat_top: 25.72
  lat_bottom: 25.64
  lon_left: -80.15
  lon_right: -80.07
  country: US
  priority: 1
- name: miami_s_w
  lat_top: 25.72
  lat_bottom: 25.64
  lon_left: -80.31
  lon_right: -80.23
  country: US
  priority: 1
- name: miami_w
  lat_top: 25.8
  lat_bottom: 25.72
  lon_left: -80.31
  lon_right: -80.23
  country: US
  priority: 1
- name: minneapolis
  lat_top: 45.02
  lat_bottom: 44.94
  lon_left: -93.31
  lon_right: -93.23
  country: US
  priority: 1
- name: minneapolis_e
  lat_top: 45.02
  lat_bottom: 44.94
  lon_left: -93.23
  lon_right: -93.15
  country: US
  priority: 1
- name: minneapolis_n
  lat_top: 45.1
  lat_bottom: 45.02
  lon_left: -93.31
  lon_right: -93.23
  country: US
  priority: 1
- name: minneapolis_n_e
  lat_top: 45.1
  lat_bottom: 45.02
  lon_left: -93.23
  lon_right: -93.15
  country: US
  priority: 1
- name: minneapolis_n_w
  lat_top: 45.1
  lat_bottom: 45.02
  lon_left: -93.39
  lon_right: -93.31
  country: US
  priority: 1
- name: minneapolis_s
  lat_top: 44.94
  lat_bottom: 44.86
  lon_left: -93.31
  lon_right: -93.23
  country: US
  priority: 1
- name: minneapolis_s_e
  lat_top: 44.94
  lat_bottom: 44.86
  lon_left: -93.23
  lon_right: -93.15
  country: US
  priority: 1
- name: minneapolis_s_w
  lat_top: 44.94
  lat_bottom: 44.86
  lon_left: -93.39
  lon_right: -93.31
  country: US
  priority: 1
- name: minneapolis_w
  lat_top: 45.02
  lat_bottom: 44.94
  lon_left: -93.39
  lon_right: -93.31
  country: US
  priority: 1
- name: monterrey
  lat_top: 25.71
  lat_bottom: 25.63
  lon_left: -100.35
  lon_right: -100.27
  country: MX
  priority: 1
- name: monterrey_e
  lat_top: 25.71
  lat_bottom: 25.63
  lon_left: -100.27
  lon_right: -100.19
  country: MX
  priority: 1
- name: monterrey_n
  lat_top: 25.79
  lat_bottom: 25.71
  lon_left: -100.35
  lon_right: -100.27
  country: MX
  priority: 1
- name: monterrey_n_e
  lat_top: 25.79
  lat_bottom: 25.71
  lon_left: -100.27
  lon_right: -100.19
  country: MX
  priority: 1
- name: monterrey_n_w
  lat_top: 25.79
  lat_bottom: 25.71
  lon_left: -100.43
  lon_right: -100.35
  country: MX
  priority: 1
- name: monterrey_s
  lat_top: 25.63
  lat_bottom: 25.55
  lon_left: -100.35
  lon_right: -100.27
  country: MX
  priority: 1
- name: monterrey_s_e
  lat_top: 25.63
  lat_bottom: 25.55
  lon_left: -100.27
  lon_right: -100.19
  country: MX
  priority: 1
- name: monterrey_s_w
  lat_top: 25.63
  lat_bottom: 25.55
  lon_left: -100.43
  lon_right: -100.35
  country: MX
  priority: 1
- name: monterrey_w
  lat_top: 25.71
  lat_bottom: 25.63
  lon_left: -100.43
  lon_right: -100.35
  country: MX
  priority: 1
- name: montreal
  lat_top: 45.54
  lat_bottom: 45.46
  lon_left: -73.61
  lon_right: -73.53
  country: CA
  priority: 1
- name: montreal_e
  lat_top: 45.54
  lat_bottom: 45.46
  lon_left: -73.53
  lon_right: -73.45
  country: CA
  priority: 1
- name: montreal_n
  lat_top: 45.62
  lat_bottom: 45.54
  lon_left: -73.61
  lon_right: -73.53
  country: CA
  priority: 1
- name: montreal_n_e
  lat_top: 45.62
  lat_bottom: 45.54
  lon_left: -73.53
  lon_right: -73.45
  country: CA
  priority: 1
- name: montreal_n_w
  lat_top: 45.62
  lat_bottom: 45.54
  lon_left: -73.69
  lon_right: -73.61
  country: CA
  priority: 1
- name: montreal_s
  lat_top: 45.46
  lat_bottom: 45.38
  lon_left: -73.61
  lon_right: -73.53
  country: CA
  priority: 1
- name: montreal_s_e
  lat_top: 45.46
  lat_bottom: 45.38
  lon_left: -73.53
  lon_right: -73.45
  country: CA
  priority: 1
- name: montreal_s_w
  lat_top: 45.46
  lat_bottom: 45.38
  lon_left: -73.69
  lon_right: -73.61
  country: CA
  priority: 1
- name: montreal_w
  lat_top: 45.54
  lat_bottom: 45.46
  lon_left: -73.69
  lon_right: -73.61
  country: CA
  priority: 1
- name: new_york
  lat_top: 40.75
  lat_bottom: 40.67
  lon_left: -74.05
  lon_right: -73.97
  country: US
  priority: 1
- name: new_york_e
  lat_top: 40.75
  lat_bottom: 40.67
  lon_left: -73.97
  lon_right: -73.89
  country: US
  priority: 1
- name: new_york_n
  lat_top: 40.83
  lat_bottom: 40.75
  lon_left: -74.05
  lon_right: -73.97
  country: US
  priority: 1
- name: new_york_n_e
  lat_top: 40.83
  lat_bottom: 40.75
  lon_left: -73.97
  lon_right: -73.89
  country: US
  priority: 1
- name: new_york_n_w
  lat_top: 40.83
  lat_bottom: 40.75
  lon_left: -74.13
  lon_right: -74.05
  country: US
  priority: 1
- name: new_york_s
  lat_top: 40.67
  lat_bottom: 40.59
  lon_left: -74.05
  lon_right: -73.97
  country: US
  priority: 1
- name: new_york_s_e
  lat_top: 40.67
  lat_bottom: 40.59
  lon_left: -73.97
  lon_right: -73.89
  country: US
  priority: 1
- name: new_york_s_w
  lat_top: 40.67
  lat_bottom: 40.59
  lon_left: -74.13
  lon_right: -74.05
  country: US
  priority: 1
- name: new_york_w
  lat_top: 40.75
  lat_bottom: 40.67
  lon_left: -74.13
  lon_right: -74.05
  country: US
  priority: 1
- name: orlando
  lat_top: 28.58
  lat_bottom: 28.5
  lon_left: -81.42
  lon_right: -81.34
  country: US
  priority: 1
- name: orlando_e
  lat_top: 28.58
  lat_bottom: 28.5
  lon_left: -81.34
  lon_right: -81.26
  country: US
  priority: 1
- name: orlando_n
  lat_top: 28.66
  lat_bottom: 28.58
  lon_left: -81.42
  lon_right: -81.34
  country: US
  priority: 1
- name: orlando_n_e
  lat_top: 28.66
  lat_bottom: 28.58
  lon_left: -81.34
  lon_right: -81.26
  country: US
  priority: 1
- name: orlando_n_w
  lat_top: 28.66
  lat_bottom: 28.58
  lon_left: -81.5
  lon_right: -81.42
  country: US
  priority: 1
- name: orlando_s
  lat_top: 28.5
  lat_bottom: 28.42
  lon_left: -81.42
  lon_right: -81.34
  country: US
  priority: 1
- name: orlando_s_e
  lat_top: 28.5
  lat_bottom: 28.42
  lon_left: -81.34
  lon_right: -81.26
  country: US
  priority: 1
- name: orlando_s_w
  lat_top: 28.5
  lat_bottom: 28.42
  lon_left: -81.5
  lon_right: -81.42
  country: US
  priority: 1
- name: orlando_w
  lat_top: 28.58
  lat_bottom: 28.5
  lon_left: -81.5
  lon_right: -81.42
  country: US
  priority: 1
- name: ottawa
  lat_top: 45.46
  lat_bottom: 45.38
  lon_left: -75.74
  lon_right: -75.66
  country: CA
  priority: 1
- name: ottawa_e
  lat_top: 45.46
  lat_bottom: 45.38
  lon_left: -75.66
  lon_right: -75.58
  country: CA
  priority: 1
- name: ottawa_n
  lat_top: 45.54
  lat_bottom: 45.46
  lon_left: -75.74
  lon_right: -75.66
  country: CA
  priority: 1
- name: ottawa_n_e
  lat_top: 45.54
  lat_bottom: 45.46
  lon_left: -75.66
  lon_right: -75.58
  country: CA
  priority: 1
- name: ottawa_n_w
  lat_top: 45.54
  lat_bottom: 45.46
  lon_left: -75.82
  lon_right: -75.74
  country: CA
  priority: 1
- name: ottawa_s
  lat_top: 45.38
  lat_bottom: 45.3
  lon_left: -75.74
  lon_right: -75.66
  country: CA
  priority: 1
- name: ottawa_s_e
  lat_top: 45.38
  lat_bottom: 45.3
  lon_left: -75.66
  lon_right: -75.58
  country: CA
  priority: 1
- name: ottawa_s_w
  lat_top: 45.38
  lat_bottom: 45.3
  lon_left: -75.82
  lon_right: -75.74
  country: CA
  priority: 1
- name: ottawa_w
  lat_top: 45.46
  lat_bottom: 45.38
  lon_left: -75.82
  lon_right: -75.74
  country: CA
  priority: 1
- name: panama_city
  lat_top: 9.02
  lat_bottom: 8.94
  lon_left: -79.56
  lon_right: -79.48
  country: PA
  priority: 1
- name: panama_city_e
  lat_top: 9.02
  lat_bottom: 8.94
  lon_left: -79.48
  lon_right: -79.4
  country: PA
  priority: 1
- name: panama_city_n
  lat_top: 9.1
  lat_bottom: 9.02
  lon_left: -79.56
  lon_right: -79.48
  country: PA
  priority: 1
- name: panama_city_n_e
  lat_top: 9.1
  lat_bottom: 9.02
  lon_left: -79.48
  lon_right: -79.4
  country: PA
  priority: 1
- name: panama_city_n_w
  lat_top: 9.1
  lat_bottom: 9.02
  lon_left: -79.64
  lon_right: -79.56
  country: PA
  priority: 1
- name: panama_city_s
  lat_top: 8.94
  lat_bottom: 8.86
  lon_left: -79.56
  lon_right: -79.48
  country: PA
  priority: 1
- name: panama_city_s_e
  lat_top: 8.94
  lat_bottom: 8.86
  lon_left: -79.48
  lon_right: -79.4
  country: PA
  priority: 1
- name: panama_city_s_w
  lat_top: 8.94
  lat_bottom: 8.86
  lon_left: -79.64
  lon_right: -79.56
  country: PA
  priority: 1
- name: panama_city_w
  lat_top: 9.02
  lat_bottom: 8.94
  lon_left: -79.64
  lon_right: -79.56
  country: PA
  priority: 1
- name: philadelphia
  lat_top: 39.99
  lat_bottom: 39.91
  lon_left: -75.21
  lon_right: -75.13
  country: US
  priority: 1
- name: philadelphia_e
  lat_top: 39.99
  lat_bottom: 39.91
  lon_left: -75.13
  lon_right: -75.05
  country: US
  priority: 1
- name: philadelphia_n
  lat_top: 40.07
  lat_bottom: 39.99
  lon_left: -75.21
  lon_right: -75.13
  country: US
  priority: 1
- name: philadelphia_n_e
  lat_top: 40.07
  lat_bottom: 39.99
  lon_left: -75.13
  lon_right: -75.05
  country: US
  priority: 1
- name: philadelphia_n_w
  lat_top: 40.07
  lat_bottom: 39.99
  lon_left: -75.29
  lon_right: -75.21
  country: US
  priority: 1
- name: philadelphia_s
  lat_top: 39.91
  lat_bottom: 39.83
  lon_left: -75.21
  lon_right: -75.13
  country: US
  priority: 1
- name: philadelphia_s_e
  lat_top: 39.91
  lat_bottom: 39.83
  lon_left: -75.13
  lon_right: -75.05
  country: US
  priority: 1
- name: philadelphia_s_w
  lat_top: 39.91
  lat_bottom: 39.83
  lon_left: -75.29
  lon_right: -75.21
  country: US
  priority: 1
- name: philadelphia_w
  lat_top: 39.99
  lat_bottom: 39.91
  lon_left: -75.29
  lon_right: -75.21
  country: US
  priority: 1
- name: phoenix
  lat_top: 33.49
  lat_bottom: 33.41
  lon_left: -112.11
  lon_right: -112.03
  country: US
  priority: 1
- name: phoenix_e
  lat_top: 33.49
  lat_bottom: 33.41
  lon_left: -112.03
  lon_right: -111.95
  country: US
  priority: 1
- name: phoenix_n
  lat_top: 33.57
  lat_bottom: 33.49
  lon_left: -112.11
  lon_right: -112.03
  country: US
  priority: 1
- name: phoenix_n_e
  lat_top: 33.57
  lat_bottom: 33.49
  lon_left: -112.03
  lon_right: -111.95
  country: US
  priority: 1
- name: phoenix_n_w
  lat_top: 33.57
  lat_bottom: 33.49
  lon_left: -112.19
  lon_right: -112.11
  country: US
  priority: 1
- name: phoenix_s
  lat_top: 33.41
  lat_bottom: 33.33
  lon_left: -112.11
  lon_right: -112.03
  country: US
  priority: 1
- name: phoenix_s_e
  lat_top: 33.41
  lat_bottom: 33.33
  lon_left: -112.03
  lon_right: -111.95
  country: US
  priority: 1
- name: phoenix_s_w
  lat_top: 33.41
  lat_bottom: 33.33
  lon_left: -112.19
  lon_right: -112.11
  country: US
  priority: 1
- name: phoenix_w
  lat_top: 33.49
  lat_bottom: 33.41
  lon_left: -112.19
  lon_right: -112.11
  country: US
  priority: 1
- name: pittsburgh
  lat_top: 40.48
  lat_bottom: 40.4
  lon_left: -80.04
  lon_right: -79.96
  country: US
  priority: 1
- name: pittsburgh_e
  lat_top: 40.48
  lat_bottom: 40.4
  lon_left: -79.96
  lon_right: -79.88
  country: US
  priority: 1
- name: pittsburgh_n
  lat_top: 40.56
  lat_bottom: 40.48
  lon_left: -80.04
  lon_right: -79.96
  country: US
  priority: 1
- name: pittsburgh_n_e
  lat_top: 40.56
  lat_bottom: 40.48
  lon_left: -79.96
  lon_right: -79.88
  country: US
  priority: 1
- name: pittsburgh_n_w
  lat_top: 40.56
  lat_bottom: 40.48
  lon_left: -80.12
  lon_right: -80.04
  country: US
  priority: 1
- name: pittsburgh_s
  lat_top: 40.4
  lat_bottom: 40.32
  lon_left: -80.04
  lon_right: -79.96
  country: US
  priority: 1
- name: pittsburgh_s_e
  lat_top: 40.4
  lat_bottom: 40.32
  lon_left: -79.96
  lon_right: -79.88
  country: US
  priority: 1
- name: pittsburgh_s_w
  lat_top: 40.4
  lat_bottom: 40.32
  lon_left: -80.12
  lon_right: -80.04
  country: US
  priority: 1
- name: pittsburgh_w
  lat_top: 40.48
  lat_bottom: 40.4
  lon_left: -80.12
  lon_right: -80.04
  country: US
  priority: 1
- name: portland
  lat_top: 45.56
  lat_bottom: 45.48
  lon_left: -122.72
  lon_right: -122.64
  country: US
  priority: 1
- name: portland_e
  lat_top: 45.56
  lat_bottom: 45.48
  lon_left: -122.64
  lon_right: -122.56
  country: US
  priority: 1
- name: portland_n
  lat_top: 45.64
  lat_bottom: 45.56
  lon_left: -122.72
  lon_right: -122.64
  country: US
  priority: 1
- name: portland_n_e
  lat_top: 45.64
  lat_bottom: 45.56
  lon_left: -122.64
  lon_right: -122.56
  country: US
  priority: 1
- name: portland_n_w
  lat_top: 45.64
  lat_bottom: 45.56
  lon_left: -122.8
  lon_right: -122.72
  country: US
  priority: 1
- name: portland_s
  lat_top: 45.48
  lat_bottom: 45.4
  lon_left: -122.72
  lon_right: -122.64
  country: US
  priority: 1
- name: portland_s_e
  lat_top: 45.48
  lat_bottom: 45.4
  lon_left: -122.64
  lon_right: -122.56
  country: US
  priority: 1
- name: portland_s_w
  lat_top: 45.48
  lat_bottom: 45.4
  lon_left: -122.8
  lon_right: -122.72
  country: US
  priority: 1
- name: portland_w
  lat_top: 45.56
  lat_bottom: 45.48
  lon_left: -122.8
  lon_right: -122.72
  country: US
  priority: 1
- name: porto_alegre
  lat_top: -29.99
  lat_bottom: -30.07
  lon_left: -51.27
  lon_right: -51.19
  country: BR
  priority: 1
- name: porto_alegre_e
  lat_top: -29.99
  lat_bottom: -30.07
  lon_left: -51.19
  lon_right: -51.11
  country: BR
  priority: 1
- name: porto_alegre_n
  lat_top: -29.91
  lat_bottom: -29.99
  lon_left: -51.27
  lon_right: -51.19
  country: BR
  priority: 1
- name: porto_alegre_n_e
  lat_top: -29.91
  lat_bottom: -29.99
  lon_left: -51.19
  lon_right: -51.11
  country: BR
  priority: 1
- name: porto_alegre_n_w
  lat_top: -29.91
  lat_bottom: -29.99
  lon_left: -51.35
  lon_right: -51.27
  country: BR
  priority: 1
- name: porto_alegre_s
  lat_top: -30.07
  lat_bottom: -30.15
  lon_left: -51.27
  lon_right: -51.19
  country: BR
  priority: 1
- name: porto_alegre_s_e
  lat_top: -30.07
  lat_bottom: -30.15
  lon_left: -51.19
  lon_right: -51.11
  country: BR
  priority: 1
- name: porto_alegre_s_w
  lat_top: -30.07
  lat_bottom: -30.15
  lon_left: -51.35
  lon_right: -51.27
  country: BR
  priority: 1
- name: porto_alegre_w
  lat_top: -29.99
  lat_bottom: -30.07
  lon_left: -51.35
  lon_right: -51.27
  country: BR
  priority: 1
- name: puebla
  lat_top: 19.08
  lat_bottom: 19.0
  lon_left: -98.25
  lon_right: -98.17
  country: MX
  priority: 1
- name: puebla_e
  lat_top: 19.08
  lat_bottom: 19.0
  lon_left: -98.17
  lon_right: -98.09
  country: MX
  priority: 1
- name: puebla_n
  lat_top: 19.16
  lat_bottom: 19.08
  lon_left: -98.25
  lon_right: -98.17
  country: MX
  priority: 1
- name: puebla_n_e
  lat_top: 19.16
  lat_bottom: 19.08
  lon_left: -98.17
  lon_right: -98.09
  country: MX
  priority: 1
- name: puebla_n_w
  lat_top: 19.16
  lat_bottom: 19.08
  lon_left: -98.33
  lon_right: -98.25
  country: MX
  priority: 1
- name: puebla_s
  lat_top: 19.0
  lat_bottom: 18.92
  lon_left: -98.25
  lon_right: -98.17
  country: MX
  priority: 1
- name: puebla_s_e
  lat_top: 19.0
  lat_bottom: 18.92
  lon_left: -98.17
  lon_right: -98.09
  country: MX
  priority: 1
- name: puebla_s_w
  lat_top: 19.0
  lat_bottom: 18.92
  lon_left: -98.33
  lon_right: -98.25
  country: MX
  priority: 1
- name: puebla_w
  lat_top: 19.08
  lat_bottom: 19.0
  lon_left: -98.33
  lon_right: -98.25
  country: MX
  priority: 1
- name: quebec_city
  lat_top: 46.85
  lat_bottom: 46.77
  lon_left: -71.25
  lon_right: -71.17
  country: CA
  priority: 1
- name: quebec_city_e
  lat_top: 46.85
  lat_bottom: 46.77
  lon_left: -71.17
  lon_right: -71.09
  country: CA
  priority: 1
- name: quebec_city_n
  lat_top: 46.93
  lat_bottom: 46.85
  lon_left: -71.25
  lon_right: -71.17
  country: CA
  priority: 1
- name: quebec_city_n_e
  lat_top: 46.93
  lat_bottom: 46.85
  lon_left: -71.17
  lon_right: -71.09
  country: CA
  priority: 1
- name: quebec_city_n_w
  lat_top: 46.93
  lat_bottom: 46.85
  lon_left: -71.33
  lon_right: -71.25
  country: CA
  priority: 1
- name: quebec_city_s
  lat_top: 46.77
  lat_bottom: 46.69
  lon_left: -71.25
  lon_right: -71.17
  country: CA
  priority: 1
- name: quebec_city_s_e
  lat_top: 46.77
  lat_bottom: 46.69
  lon_left: -71.17
  lon_right: -71.09
  country: CA
  priority: 1
- name: quebec_city_s_w
  lat_top: 46.77
  lat_bottom: 46.69
  lon_left: -71.33
  lon_right: -71.25
  country: CA
  priority: 1
- name: quebec_city_w
  lat_top: 46.85
  lat_bottom: 46.77
  lon_left: -71.33
  lon_right: -71.25
  country: CA
  priority: 1
- name: quito
  lat_top: -0.14
  lat_bottom: -0.22
  lon_left: -78.51
  lon_right: -78.43
  country: EC
  priority: 1
- name: quito_e
  lat_top: -0.14
  lat_bottom: -0.22
  lon_left: -78.43
  lon_right: -78.35
  country: EC
  priority: 1
- name: quito_n
  lat_top: -0.06
  lat_bottom: -0.14
  lon_left: -78.51
  lon_right: -78.43
  country: EC
  priority: 1
- name: quito_n_e
  lat_top: -0.06
  lat_bottom: -0.14
  lon_left: -78.43
  lon_right: -78.35
  country: EC
  priority: 1
- name: quito_n_w
  lat_top: -0.06
  lat_bottom: -0.14
  lon_left: -78.59
  lon_right: -78.51
  country: EC
  priority: 1
- name: quito_s
  lat_top: -0.22
  lat_bottom: -0.3
  lon_left: -78.51
  lon_right: -78.43
  country: EC
  priority: 1
- name: quito_s_e
  lat_top: -0.22
  lat_bottom: -0.3
  lon_left: -78.43
  lon_right: -78.35
  country: EC
  priority: 1
- name: quito_s_w
  lat_top: -0.22
  lat_bottom: -0.3
  lon_left: -78.59
  lon_right: -78.51
  country: EC
  priority: 1
- name: quito_w
  lat_top: -0.14
  lat_bottom: -0.22
  lon_left: -78.59
  lon_right: -78.51
  country: EC
  priority: 1
- name: recife
  lat_top: -8.01
  lat_bottom: -8.09
  lon_left: -34.92
  lon_right: -34.84
  country: BR
  priority: 1
- name: recife_e
  lat_top: -8.01
  lat_bottom: -8.09
  lon_left: -34.84
  lon_right: -34.76
  country: BR
  priority: 1
- name: recife_n
  lat_top: -7.93
  lat_bottom: -8.01
  lon_left: -34.92
  lon_right: -34.84
  country: BR
  priority: 1
- name: recife_n_e
  lat_top: -7.93
  lat_bottom: -8.01
  lon_left: -34.84
  lon_right: -34.76
  country: BR
  priority: 1
- name: recife_n_w
  lat_top: -7.93
  lat_bottom: -8.01
  lon_left: -35.0
  lon_right: -34.92
  country: BR
  priority: 1
- name: recife_s
  lat_top: -8.09
  lat_bottom: -8.17
  lon_left: -34.92
  lon_right: -34.84
  country: BR
  priority: 1
- name: recife_s_e
  lat_top: -8.09
  lat_bottom: -8.17
  lon_left: -34.84
  lon_right: -34.76
  country: BR
  priority: 1
- name: recife_s_w
  lat_top: -8.09
  lat_bottom: -8.17
  lon_left: -35.0
  lon_right: -34.92
  country: BR
  priority: 1
- name: recife_w
  lat_top: -8.01
  lat_bottom: -8.09
  lon_left: -35.0
  lon_right: -34.92
  country: BR
  priority: 1
- name: rio_de_janeiro
  lat_top: -22.87
  lat_bottom: -22.95
  lon_left: -43.21
  lon_right: -43.13
  country: BR
  priority: 1
- name: rio_de_janeiro_e
  lat_top: -22.87
  lat_bottom: -22.95
  lon_left: -43.13
  lon_right: -43.05
  country: BR
  priority: 1
- name: rio_de_janeiro_n
  lat_top: -22.79
  lat_bottom: -22.87
  lon_left: -43.21
  lon_right: -43.13
  country: BR
  priority: 1
- name: rio_de_janeiro_n_e
  lat_top: -22.79
  lat_bottom: -22.87
  lon_left: -43.13
  lon_right: -43.05
  country: BR
  priority: 1
- name: rio_de_janeiro_n_w
  lat_top: -22.79
  lat_bottom: -22.87
  lon_left: -43.29
  lon_right: -43.21
  country: BR
  priority: 1
- name: rio_de_janeiro_s
  lat_top: -22.95
  lat_bottom: -23.03
  lon_left: -43.21
  lon_right: -43.13
  country: BR
  priority: 1
- name: rio_de_janeiro_s_e
  lat_top: -22.95
  lat_bottom: -23.03
  lon_left: -43.13
  lon_right: -43.05
  country: BR
  priority: 1
- name: rio_de_janeiro_s_w
  lat_top: -22.95
  lat_bottom: -23.03
  lon_left: -43.29
  lon_right: -43.21
  country: BR
  priority: 1
- name: rio_de_janeiro_w
  lat_top: -22.87
  lat_bottom: -22.95
  lon_left: -43.29
  lon_right: -43.21
  country: BR
  priority: 1
- name: rosario
  lat_top: -32.91
  lat_bottom: -32.99
  lon_left: -60.69
  lon_right: -60.61
  country: AR
  priority: 1
- name: rosario_e
  lat_top: -32.91
  lat_bottom: -32.99
  lon_left: -60.61
  lon_right: -60.53
  country: AR
  priority: 1
- name: rosario_n
  lat_top: -32.83
  lat_bottom: -32.91
  lon_left: -60.69
  lon_right: -60.61
  country: AR
  priority: 1
- name: rosario_n_e
  lat_top: -32.83
  lat_bottom: -32.91
  lon_left: -60.61
  lon_right: -60.53
  country: AR
  priority: 1
- name: rosario_n_w
  lat_top: -32.83
  lat_bottom: -32.91
  lon_left: -60.77
  lon_right: -60.69
  country: AR
  priority: 1
- name: rosario_s
  lat_top: -32.99
  lat_bottom: -33.07
  lon_left: -60.69
  lon_right: -60.61
  country: AR
  priority: 1
- name: rosario_s_e
  lat_top: -32.99
  lat_bottom: -33.07
  lon_left: -60.61
  lon_right: -60.53
  country: AR
  priority: 1
- name: rosario_s_w
  lat_top: -32.99
  lat_bottom: -33.07
  lon_left: -60.77
  lon_right: -60.69
  country: AR
  priority: 1
- name: rosario_w
  lat_top: -32.91
  lat_bottom: -32.99
  lon_left: -60.77
  lon_right: -60.69
  country: AR
  priority: 1
- name: salvador
  lat_top: -12.93
  lat_bottom: -13.01
  lon_left: -38.54
  lon_right: -38.46
  country: BR
  priority: 1
- name: salvador_e
  lat_top: -12.93
  lat_bottom: -13.01
  lon_left: -38.46
  lon_right: -38.38
  country: BR
  priority: 1
- name: salvador_n
  lat_top: -12.85
  lat_bottom: -12.93
  lon_left: -38.54
  lon_right: -38.46
  country: BR
  priority: 1
- name: salvador_n_e
  lat_top: -12.85
  lat_bottom: -12.93
  lon_left: -38.46
  lon_right: -38.38
  country: BR
  priority: 1
- name: salvador_n_w
  lat_top: -12.85
  lat_bottom: -12.93
  lon_left: -38.62
  lon_right: -38.54
  country: BR
  priority: 1
- name: salvador_s
  lat_top: -13.01
  lat_bottom: -13.09
  lon_left: -38.54
  lon_right: -38.46
  country: BR
  priority: 1
- name: salvador_s_e
  lat_top: -13.01
  lat_bottom: -13.09
  lon_left: -38.46
  lon_right: -38.38
  country: BR
  priority: 1
- name: salvador_s_w
  lat_top: -13.01
  lat_bottom: -13.09
  lon_left: -38.62
  lon_right: -38.54
  country: BR
  priority: 1
- name: salvador_w
  lat_top: -12.93
  lat_bottom: -13.01
  lon_left: -38.62
  lon_right: -38.54
  country: BR
  priority: 1
- name: san_antonio
  lat_top: 29.46
  lat_bottom: 29.38
  lon_left: -98.53
  lon_right: -98.45
  country: US
  priority: 1
- name: san_antonio_e
  lat_top: 29.46
  lat_bottom: 29.38
  lon_left: -98.45
  lon_right: -98.37
  country: US
  priority: 1
- name: san_antonio_n
  lat_top: 29.54
  lat_bottom: 29.46
  lon_left: -98.53
  lon_right: -98.45
  country: US
  priority: 1
- name: san_antonio_n_e
  lat_top: 29.54
  lat_bottom: 29.46
  lon_left: -98.45
  lon_right: -98.37
  country: US
  priority: 1
- name: san_antonio_n_w
  lat_top: 29.54
  lat_bottom: 29.46
  lon_left: -98.61
  lon_right: -98.53
  country: US
  priority: 1
- name: san_antonio_s
  lat_top: 29.38
  lat_bottom: 29.3
  lon_left: -98.53
  lon_right: -98.45
  country: US
  priority: 1
- name: san_antonio_s_e
  lat_top: 29.38
  lat_bottom: 29.3
  lon_left: -98.45
  lon_right: -98.37
  country: US
  priority: 1
- name: san_antonio_s_w
  lat_top: 29.38
  lat_bottom: 29.3
  lon_left: -98.61
  lon_right: -98.53
  country: US
  priority: 1
- name: san_antonio_w
  lat_top: 29.46
  lat_bottom: 29.38
  lon_left: -98.61
  lon_right: -98.53
  country: US
  priority: 1
- name: san_diego
  lat_top: 32.76
  lat_bottom: 32.68
  lon_left: -117.2
  lon_right: -117.12
  country: US
  priority: 1
- name: san_diego_e
  lat_top: 32.76
  lat_bottom: 32.68
  lon_left: -117.12
  lon_right: -117.04
  country: US
  priority: 1
- name: san_diego_n
  lat_top: 32.84
  lat_bottom: 32.76
  lon_left: -117.2
  lon_right: -117.12
  country: US
  priority: 1
- name: san_diego_n_e
  lat_top: 32.84
  lat_bottom: 32.76
  lon_left: -117.12
  lon_right: -117.04
  country: US
  priority: 1
- name: san_diego_n_w
  lat_top: 32.84
  lat_bottom: 32.76
  lon_left: -117.28
  lon_right: -117.2
  country: US
  priority: 1
- name: san_diego_s
  lat_top: 32.68
  lat_bottom: 32.6
  lon_left: -117.2
  lon_right: -117.12
  country: US
  priority: 1
- name: san_diego_s_e
  lat_top: 32.68
  lat_bottom: 32.6
  lon_left: -117.12
  lon_right: -117.04
  country: US
  priority: 1
- name: san_diego_s_w
  lat_top: 32.68
  lat_bottom: 32.6
  lon_left: -117.28
  lon_right: -117.2
  country: US
  priority: 1
- name: san_diego_w
  lat_top: 32.76
  lat_bottom: 32.68
  lon_left: -117.28
  lon_right: -117.2
  country: US
  priority: 1
- name: san_francisco
  lat_top: 37.81
  lat_bottom: 37.73
  lon_left: -122.46
  lon_right: -122.38
  country: US
  priority: 1
- name: san_francisco_e
  lat_top: 37.81
  lat_bottom: 37.73
  lon_left: -122.38
  lon_right: -122.3
  country: US
  priority: 1
- name: san_francisco_n
  lat_top: 37.89
  lat_bottom: 37.81
  lon_left: -122.46
  lon_right: -122.38
  country: US
  priority: 1
- name: san_francisco_n_e
  lat_top: 37.89
  lat_bottom: 37.81
  lon_left: -122.38
  lon_right: -122.3
  country: US
  priority: 1
- name: san_francisco_n_w
  lat_top: 37.89
  lat_bottom: 37.81
  lon_left: -122.54
  lon_right: -122.46
  country: US
  priority: 1
- name: san_francisco_s
  lat_top: 37.73
  lat_bottom: 37.65
  lon_left: -122.46
  lon_right: -122.38
  country: US
  priority: 1
- name: san_francisco_s_e
  lat_top: 37.73
  lat_bottom: 37.65
  lon_left: -122.38
  lon_right: -122.3
  country: US
  priority: 1
- name: san_francisco_s_w
  lat_top: 37.73
  lat_bottom: 37.65
  lon_left: -122.54
  lon_right: -122.46
  country: US
  priority: 1
- name: san_francisco_w
  lat_top: 37.81
  lat_bottom: 37.73
  lon_left: -122.54
  lon_right: -122.46
  country: US
  priority: 1
- name: san_jose
  lat_top: 37.38
  lat_bottom: 37.3
  lon_left: -121.93
  lon_right: -121.85
  country: US
  priority: 1
- name: san_jose_cr
  lat_top: 9.97
  lat_bottom: 9.89
  lon_left: -84.13
  lon_right: -84.05
  country: CR
  priority: 1
- name: san_jose_cr_e
  lat_top: 9.97
  lat_bottom: 9.89
  lon_left: -84.05
  lon_right: -83.97
  country: CR
  priority: 1
- name: san_jose_cr_n
  lat_top: 10.05
  lat_bottom: 9.97
  lon_left: -84.13
  lon_right: -84.05
  country: CR
  priority: 1
- name: san_jose_cr_n_e
  lat_top: 10.05
  lat_bottom: 9.97
  lon_left: -84.05
  lon_right: -83.97
  country: CR
  priority: 1
- name: san_jose_cr_n_w
  lat_top: 10.05
  lat_bottom: 9.97
  lon_left: -84.21
  lon_right: -84.13
  country: CR
  priority: 1
- name: san_jose_cr_s
  lat_top: 9.89
  lat_bottom: 9.81
  lon_left: -84.13
  lon_right: -84.05
  country: CR
  priority: 1
- name: san_jose_cr_s_e
  lat_top: 9.89
  lat_bottom: 9.81
  lon_left: -84.05
  lon_right: -83.97
  country: CR
  priority: 1
- name: san_jose_cr_s_w
  lat_top: 9.89
  lat_bottom: 9.81
  lon_left: -84.21
  lon_right: -84.13
  country: CR
  priority: 1
- name: san_jose_cr_w
  lat_top: 9.97
  lat_bottom: 9.89
  lon_left: -84.21
  lon_right: -84.13
  country: CR
  priority: 1
- name: san_jose_e
  lat_top: 37.38
  lat_bottom: 37.3
  lon_left: -121.85
  lon_right: -121.77
  country: US
  priority: 1
- name: san_jose_n
  lat_top: 37.46
  lat_bottom: 37.38
  lon_left: -121.93
  lon_right: -121.85
  country: US
  priority: 1
- name: san_jose_n_e
  lat_top: 37.46
  lat_bottom: 37.38
  lon_left: -121.85
  lon_right: -121.77
  country: US
  priority: 1
- name: san_jose_n_w
  lat_top: 37.46
  lat_bottom: 37.38
  lon_left: -122.01
  lon_right: -121.93
  country: US
  priority: 1
- name: san_jose_s
  lat_top: 37.3
  lat_bottom: 37.22
  lon_left: -121.93
  lon_right: -121.85
  country: US
  priority: 1
- name: san_jose_s_e
  lat_top: 37.3
  lat_bottom: 37.22
  lon_left: -121.85
  lon_right: -121.77
  country: US
  priority: 1
- name: san_jose_s_w
  lat_top: 37.3
  lat_bottom: 37.22
  lon_left: -122.01
  lon_right: -121.93
  country: US
  priority: 1
- name: san_jose_w
  lat_top: 37.38
  lat_bottom: 37.3
  lon_left: -122.01
  lon_right: -121.93
  country: US
  priority: 1
- name: san_juan
  lat_top: 18.51
  lat_bottom: 18.43
  lon_left: -66.15
  lon_right: -66.07
  country: PR
  priority: 1
- name: san_juan_e
  lat_top: 18.51
  lat_bottom: 18.43
  lon_left: -66.07
  lon_right: -65.99
  country: PR
  priority: 1
- name: san_juan_n
  lat_top: 18.59
  lat_bottom: 18.51
  lon_left: -66.15
  lon_right: -66.07
  country: PR
  priority: 1
- name: san_juan_n_e
  lat_top: 18.59
  lat_bottom: 18.51
  lon_left: -66.07
  lon_right: -65.99
  country: PR
  priority: 1
- name: san_juan_n_w
  lat_top: 18.59
  lat_bottom: 18.51
  lon_left: -66.23
  lon_right: -66.15
  country: PR
  priority: 1
- name: san_juan_s
  lat_top: 18.43
  lat_bottom: 18.35
  lon_left: -66.15
  lon_right: -66.07
  country: PR
  priority: 1
- name: san_juan_s_e
  lat_top: 18.43
  lat_bottom: 18.35
  lon_left: -66.07
  lon_right: -65.99
  country: PR
  priority: 1
- name: san_juan_s_w
  lat_top: 18.43
  lat_bottom: 18.35
  lon_left: -66.23
  lon_right: -66.15
  country: PR
  priority: 1
- name: san_juan_w
  lat_top: 18.51
  lat_bottom: 18.43
  lon_left: -66.23
  lon_right: -66.15
  country: PR
  priority: 1
- name: santiago
  lat_top: -33.41
  lat_bottom: -33.49
  lon_left: -70.71
  lon_right: -70.63
  country: CL
  priority: 1
- name: santiago_e
  lat_top: -33.41
  lat_bottom: -33.49
  lon_left: -70.63
  lon_right: -70.55
  country: CL
  priority: 1
- name: santiago_n
  lat_top: -33.33
  lat_bottom: -33.41
  lon_left: -70.71
  lon_right: -70.63
  country: CL
  priority: 1
- name: santiago_n_e
  lat_top: -33.33
  lat_bottom: -33.41
  lon_left: -70.63
  lon_right: -70.55
  country: CL
  priority: 1
- name: santiago_n_w
  lat_top: -33.33
  lat_bottom: -33.41
  lon_left: -70.79
  lon_right: -70.71
  country: CL
  priority: 1
- name: santiago_s
  lat_top: -33.49
  lat_bottom: -33.57
  lon_left: -70.71
  lon_right: -70.63
  country: CL
  priority: 1
- name: santiago_s_e
  lat_top: -33.49
  lat_bottom: -33.57
  lon_left: -70.63
  lon_right: -70.55
  country: CL
  priority: 1
- name: santiago_s_w
  lat_top: -33.49
  lat_bottom: -33.57
  lon_left: -70.79
  lon_right: -70.71
  country: CL
  priority: 1
- name: santiago_w
  lat_top: -33.41
  lat_bottom: -33.49
  lon_left: -70.79
  lon_right: -70.71
  country: CL
  priority: 1
- name: santo_domingo
  lat_top: 18.53
  lat_bottom: 18.45
  lon_left: -69.97
  lon_right: -69.89
  country: DO
  priority: 1
- name: santo_domingo_e
  lat_top: 18.53
  lat_bottom: 18.45
  lon_left: -69.89
  lon_right: -69.81
  country: DO
  priority: 1
- name: santo_domingo_n
  lat_top: 18.61
  lat_bottom: 18.53
  lon_left: -69.97
  lon_right: -69.89
  country: DO
  priority: 1
- name: santo_domingo_n_e
  lat_top: 18.61
  lat_bottom: 18.53
  lon_left: -69.89
  lon_right: -69.81
  country: DO
  priority: 1
- name: santo_domingo_n_w
  lat_top: 18.61
  lat_bottom: 18.53
  lon_left: -70.05
  lon_right: -69.97
  country: DO
  priority: 1
- name: santo_domingo_s
  lat_top: 18.45
  lat_bottom: 18.37
  lon_left: -69.97
  lon_right: -69.89
  country: DO
  priority: 1
- name: santo_domingo_s_e
  lat_top: 18.45
  lat_bottom: 18.37
  lon_left: -69.89
  lon_right: -69.81
  country: DO
  priority: 1
- name: santo_domingo_s_w
  lat_top: 18.45
  lat_bottom: 18.37
  lon_left: -70.05
  lon_right: -69.97
  country: DO
  priority: 1
- name: santo_domingo_w
  lat_top: 18.53
  lat_bottom: 18.45
  lon_left: -70.05
  lon_right: -69.97
  country: DO
  priority: 1
- name: sao_paulo
  lat_top: -23.51
  lat_bottom: -23.59
  lon_left: -46.67
  lon_right: -46.59
  country: BR
  priority: 1
- name: sao_paulo_e
  lat_top: -23.51
  lat_bottom: -23.59
  lon_left: -46.59
  lon_right: -46.51
  country: BR
  priority: 1
- name: sao_paulo_n
  lat_top: -23.43
  lat_bottom: -23.51
  lon_left: -46.67
  lon_right: -46.59
  country: BR
  priority: 1
- name: sao_paulo_n_e
  lat_top: -23.43
  lat_bottom: -23.51
  lon_left: -46.59
  lon_right: -46.51
  country: BR
  priority: 1
- name: sao_paulo_n_w
  lat_top: -23.43
  lat_bottom: -23.51
  lon_left: -46.75
  lon_right: -46.67
  country: BR
  priority: 1
- name: sao_paulo_s
  lat_top: -23.59
  lat_bottom: -23.67
  lon_left: -46.67
  lon_right: -46.59
  country: BR
  priority: 1
- name: sao_paulo_s_e
  lat_top: -23.59
  lat_bottom: -23.67
  lon_left: -46.59
  lon_right: -46.51
  country: BR
  priority: 1
- name: sao_paulo_s_w
  lat_top: -23.59
  lat_bottom: -23.67
  lon_left: -46.75
  lon_right: -46.67
  country: BR
  priority: 1
- name: sao_paulo_w
  lat_top: -23.51
  lat_bottom: -23.59
  lon_left: -46.75
  lon_right: -46.67
  country: BR
  priority: 1
- name: seattle
  lat_top: 47.65
  lat_bottom: 47.57
  lon_left: -122.37
  lon_right: -122.29
  country: US
  priority: 1
- name: seattle_e
  lat_top: 47.65
  lat_bottom: 47.57
  lon_left: -122.29
  lon_right: -122.21
  country: US
  priority: 1
- name: seattle_n
  lat_top: 47.73
  lat_bottom: 47.65
  lon_left: -122.37
  lon_right: -122.29
  country: US
  priority: 1
- name: seattle_n_e
  lat_top: 47.73
  lat_bottom: 47.65
  lon_left: -122.29
  lon_right: -122.21
  country: US
  priority: 1
- name: seattle_n_w
  lat_top: 47.73
  lat_bottom: 47.65
  lon_left: -122.45
  lon_right: -122.37
  country: US
  priority: 1
- name: seattle_s
  lat_top: 47.57
  lat_bottom: 47.49
  lon_left: -122.37
  lon_right: -122.29
  country: US
  priority: 1
- name: seattle_s_e
  lat_top: 47.57
  lat_bottom: 47.49
  lon_left: -122.29
  lon_right: -122.21
  country: US
  priority: 1
- name: seattle_s_w
  lat_top: 47.57
  lat_bottom: 47.49
  lon_left: -122.45
  lon_right: -122.37
  country: US
  priority: 1
- name: seattle_w
  lat_top: 47.65
  lat_bottom: 47.57
  lon_left: -122.45
  lon_right: -122.37
  country: US
  priority: 1
- name: st_louis
  lat_top: 38.67
  lat_bottom: 38.59
  lon_left: -90.24
  lon_right: -90.16
  country: US
  priority: 1
- name: st_louis_e
  lat_top: 38.67
  lat_bottom: 38.59
  lon_left: -90.16
  lon_right: -90.08
  country: US
  priority: 1
- name: st_louis_n
  lat_top: 38.75
  lat_bottom: 38.67
  lon_left: -90.24
  lon_right: -90.16
  country: US
  priority: 1
- name: st_louis_n_e
  lat_top: 38.75
  lat_bottom: 38.67
  lon_left: -90.16
  lon_right: -90.08
  country: US
  priority: 1
- name: st_louis_n_w
  lat_top: 38.75
  lat_bottom: 38.67
  lon_left: -90.32
  lon_right: -90.24
  country: US
  priority: 1
- name: st_louis_s
  lat_top: 38.59
  lat_bottom: 38.51
  lon_left: -90.24
  lon_right: -90.16
  country: US
  priority: 1
- name: st_louis_s_e
  lat_top: 38.59
  lat_bottom: 38.51
  lon_left: -90.16
  lon_right: -90.08
  country: US
  priority: 1
- name: st_louis_s_w
  lat_top: 38.59
  lat_bottom: 38.51
  lon_left: -90.32
  lon_right: -90.24
  country: US
  priority: 1
- name: st_louis_w
  lat_top: 38.67
  lat_bottom: 38.59
  lon_left: -90.32
  lon_right: -90.24
  country: US
  priority: 1
- name: tampa
  lat_top: 27.99
  lat_bottom: 27.91
  lon_left: -82.5
  lon_right: -82.42
  country: US
  priority: 1
- name: tampa_e
  lat_top: 27.99
  lat_bottom: 27.91
  lon_left: -82.42
  lon_right: -82.34
  country: US
  priority: 1
- name: tampa_n
  lat_top: 28.07
  lat_bottom: 27.99
  lon_left: -82.5
  lon_right: -82.42
  country: US
  priority: 1
- name: tampa_n_e
  lat_top: 28.07
  lat_bottom: 27.99
  lon_left: -82.42
  lon_right: -82.34
  country: US
  priority: 1
- name: tampa_n_w
  lat_top: 28.07
  lat_bottom: 27.99
  lon_left: -82.58
  lon_right: -82.5
  country: US
  priority: 1
- name: tampa_s
  lat_top: 27.91
  lat_bottom: 27.83
  lon_left: -82.5
  lon_right: -82.42
  country: US
  priority: 1
- name: tampa_s_e
  lat_top: 27.91
  lat_bottom: 27.83
  lon_left: -82.42
  lon_right: -82.34
  country: US
  priority: 1
- name: tampa_s_w
  lat_top: 27.91
  lat_bottom: 27.83
  lon_left: -82.58
  lon_right: -82.5
  country: US
  priority: 1
- name: tampa_w
  lat_top: 27.99
  lat_bottom: 27.91
  lon_left: -82.58
  lon_right: -82.5
  country: US
  priority: 1
- name: tijuana
  lat_top: 32.55
  lat_bottom: 32.47
  lon_left: -117.08
  lon_right: -117.0
  country: MX
  priority: 1
- name: tijuana_e
  lat_top: 32.55
  lat_bottom: 32.47
  lon_left: -117.0
  lon_right: -116.92
  country: MX
  priority: 1
- name: tijuana_n
  lat_top: 32.63
  lat_bottom: 32.55
  lon_left: -117.08
  lon_right: -117.0
  country: MX
  priority: 1
- name: tijuana_n_e
  lat_top: 32.63
  lat_bottom: 32.55
  lon_left: -117.0
  lon_right: -116.92
  country: MX
  priority: 1
- name: tijuana_n_w
  lat_top: 32.63
  lat_bottom: 32.55
  lon_left: -117.16
  lon_right: -117.08
  country: MX
  priority: 1
- name: tijuana_s
  lat_top: 32.47
  lat_bottom: 32.39
  lon_left: -117.08
  lon_right: -117.0
  country: MX
  priority: 1
- name: tijuana_s_e
  lat_top: 32.47
  lat_bottom: 32.39
  lon_left: -117.0
  lon_right: -116.92
  country: MX
  priority: 1
- name: tijuana_s_w
  lat_top: 32.47
  lat_bottom: 32.39
  lon_left: -117.16
  lon_right: -117.08
  country: MX
  priority: 1
- name: tijuana_w
  lat_top: 32.55
  lat_bottom: 32.47
  lon_left: -117.16
  lon_right: -117.08
  country: MX
  priority: 1
- name: toronto
  lat_top: 43.69
  lat_bottom: 43.61
  lon_left: -79.42
  lon_right: -79.34
  country: CA
  priority: 1
- name: toronto_e
  lat_top: 43.69
  lat_bottom: 43.61
  lon_left: -79.34
  lon_right: -79.26
  country: CA
  priority: 1
- name: toronto_n
  lat_top: 43.77
  lat_bottom: 43.69
  lon_left: -79.42
  lon_right: -79.34
  country: CA
  priority: 1
- name: toronto_n_e
  lat_top: 43.77
  lat_bottom: 43.69
  lon_left: -79.34
  lon_right: -79.26
  country: CA
  priority: 1
- name: toronto_n_w
  lat_top: 43.77
  lat_bottom: 43.69
  lon_left: -79.5
  lon_right: -79.42
  country: CA
  priority: 1
- name: toronto_s
  lat_top: 43.61
  lat_bottom: 43.53
  lon_left: -79.42
  lon_right: -79.34
  country: CA
  priority: 1
- name: toronto_s_e
  lat_top: 43.61
  lat_bottom: 43.53
  lon_left: -79.34
  lon_right: -79.26
  country: CA
  priority: 1
- name: toronto_s_w
  lat_top: 43.61
  lat_bottom: 43.53
  lon_left: -79.5
  lon_right: -79.42
  country: CA
  priority: 1
- name: toronto_w
  lat_top: 43.69
  lat_bottom: 43.61
  lon_left: -79.5
  lon_right: -79.42
  country: CA
  priority: 1
- name: valparaiso
  lat_top: -33.01
  lat_bottom: -33.09
  lon_left: -71.66
  lon_right: -71.58
  country: CL
  priority: 1
- name: valparaiso_e
  lat_top: -33.01
  lat_bottom: -33.09
  lon_left: -71.58
  lon_right: -71.5
  country: CL
  priority: 1
- name: valparaiso_n
  lat_top: -32.93
  lat_bottom: -33.01
  lon_left: -71.66
  lon_right: -71.58
  country: CL
  priority: 1
- name: valparaiso_n_e
  lat_top: -32.93
  lat_bottom: -33.01
  lon_left: -71.58
  lon_right: -71.5
  country: CL
  priority: 1
- name: valparaiso_n_w
  lat_top: -32.93
  lat_bottom: -33.01
  lon_left: -71.74
  lon_right: -71.66
  country: CL
  priority: 1
- name: valparaiso_s
  lat_top: -33.09
  lat_bottom: -33.17
  lon_left: -71.66
  lon_right: -71.58
  country: CL
  priority: 1
- name: valparaiso_s_e
  lat_top: -33.09
  lat_bottom: -33.17
  lon_left: -71.58
  lon_right: -71.5
  country: CL
  priority: 1
- name: valparaiso_s_w
  lat_top: -33.09
  lat_bottom: -33.17
  lon_left: -71.74
  lon_right: -71.66
  country: CL
  priority: 1
- name: valparaiso_w
  lat_top: -33.01
  lat_bottom: -33.09
  lon_left: -71.74
  lon_right: -71.66
  country: CL
  priority: 1
- name: vancouver
  lat_top: 49.32
  lat_bottom: 49.24
  lon_left: -123.16
  lon_right: -123.08
  country: CA
  priority: 1
- name: vancouver_e
  lat_top: 49.32
  lat_bottom: 49.24
  lon_left: -123.08
  lon_right: -123.0
  country: CA
  priority: 1
- name: vancouver_n
  lat_top: 49.4
  lat_bottom: 49.32
  lon_left: -123.16
  lon_right: -123.08
  country: CA
  priority: 1
- name: vancouver_n_e
  lat_top: 49.4
  lat_bottom: 49.32
  lon_left: -123.08
  lon_right: -123.0
  country: CA
  priority: 1
- name: vancouver_n_w
  lat_top: 49.4
  lat_bottom: 49.32
  lon_left: -123.24
  lon_right: -123.16
  country: CA
  priority: 1
- name: vancouver_s
  lat_top: 49.24
  lat_bottom: 49.16
  lon_left: -123.16
  lon_right: -123.08
  country: CA
  priority: 1
- name: vancouver_s_e
  lat_top: 49.24
  lat_bottom: 49.16
  lon_left: -123.08
  lon_right: -123.0
  country: CA
  priority: 1
- name: vancouver_s_w
  lat_top: 49.24
  lat_bottom: 49.16
  lon_left: -123.24
  lon_right: -123.16
  country: CA
  priority: 1
- name: vancouver_w
  lat_top: 49.32
  lat_bottom: 49.24
  lon_left: -123.24
  lon_right: -123.16
  country: CA
  priority: 1
- name: washington_dc
  lat_top: 38.95
  lat_bottom: 38.87
  lon_left: -77.08
  lon_right: -77.0
  country: US
  priority: 1
- name: washington_dc_e
  lat_top: 38.95
  lat_bottom: 38.87
  lon_left: -77.0
  lon_right: -76.92
  country: US
  priority: 1
- name: washington_dc_n
  lat_top: 39.03
  lat_bottom: 38.95
  lon_left: -77.08
  lon_right: -77.0
  country: US
  priority: 1
- name: washington_dc_n_e
  lat_top: 39.03
  lat_bottom: 38.95
  lon_left: -77.0
  lon_right: -76.92
  country: US
  priority: 1
- name: washington_dc_n_w
  lat_top: 39.03
  lat_bottom: 38.95
  lon_left: -77.16
  lon_right: -77.08
  country: US
  priority: 1
- name: washington_dc_s
  lat_top: 38.87
  lat_bottom: 38.79
  lon_left: -77.08
  lon_right: -77.0
  country: US
  priority: 1
- name: washington_dc_s_e
  lat_top: 38.87
  lat_bottom: 38.79
  lon_left: -77.0
  lon_right: -76.92
  country: US
  priority: 1
- name: washington_dc_s_w
  lat_top: 38.87
  lat_bottom: 38.79
  lon_left: -77.16
  lon_right: -77.08
  country: US
  priority: 1
- name: washington_dc_w
  lat_top: 38.95
  lat_bottom: 38.87
  lon_left: -77.16
  lon_right: -77.08
  country: US
  priority: 1
- name: winnipeg
  lat_top: 49.94
  lat_bottom: 49.86
  lon_left: -97.18
  lon_right: -97.1
  country: CA
  priority: 1
- name: winnipeg_e
  lat_top: 49.94
  lat_bottom: 49.86
  lon_left: -97.1
  lon_right: -97.02
  country: CA
  priority: 1
- name: winnipeg_n
  lat_top: 50.02
  lat_bottom: 49.94
  lon_left: -97.18
  lon_right: -97.1
  country: CA
  priority: 1
- name: winnipeg_n_e
  lat_top: 50.02
  lat_bottom: 49.94
  lon_left: -97.1
  lon_right: -97.02
  country: CA
  priority: 1
- name: winnipeg_n_w
  lat_top: 50.02
  lat_bottom: 49.94
  lon_left: -97.26
  lon_right: -97.18
  country: CA
  priority: 1
- name: winnipeg_s
  lat_top: 49.86
  lat_bottom: 49.78
  lon_left: -97.18
  lon_right: -97.1
  country: CA
  priority: 1
- name: winnipeg_s_e
  lat_top: 49.86
  lat_bottom: 49.78
  lon_left: -97.1
  lon_right: -97.02
  country: CA
  priority: 1
- name: winnipeg_s_w
  lat_top: 49.86
  lat_bottom: 49.78
  lon_left: -97.26
  lon_right: -97.18
  country: CA
  priority: 1
- name: winnipeg_w
  lat_top: 49.94
  lat_bottom: 49.86
  lon_left: -97.26
  lon_right: -97.18
  country: CA
  priority: 1
- name: am_ca_49_m100
  lat_top: 51.0
  lat_bottom: 49
  lon_left: -100.0
  lon_right: -98.0
  country: CA
  priority: 3
- name: am_ca_49_m102
  lat_top: 51.0
  lat_bottom: 49
  lon_left: -102.0
  lon_right: -100.0
  country: CA
  priority: 3
- name: am_ca_49_m104
  lat_top: 51.0
  lat_bottom: 49
  lon_left: -104.0
  lon_right: -102.0
  country: CA
  priority: 3
- name: am_ca_49_m106
  lat_top: 51.0
  lat_bottom: 49
  lon_left: -106.0
  lon_right: -104.0
  country: CA
  priority: 3
- name: am_ca_49_m108
  lat_top: 51.0
  lat_bottom: 49
  lon_left: -108.0
  lon_right: -106.0
  country: CA
  priority: 3
- name: am_ca_49_m110
  lat_top: 51.0
  lat_bottom: 49
  lon_left: -110.0
  lon_right: -108.0
  country: CA
  priority: 3
- name: am_ca_49_m112
  lat_top: 51.0
  lat_bottom: 49
  lon_left: -112.0
  lon_right: -110.0
  country: CA
  priority: 3
- name: am_ca_49_m114
  lat_top: 51.0
  lat_bottom: 49
  lon_left: -114.0
  lon_right: -112.0
  country: CA
  priority: 3
- name: am_ca_49_m116
  lat_top: 51.0
  lat_bottom: 49
  lon_left: -116.0
  lon_right: -114.0
  country: CA
  priority: 3
- name: am_ca_49_m118
  lat_top: 51.0
  lat_bottom: 49
  lon_left: -118.0
  lon_right: -116.0
  country: CA
  priority: 3
- name: am_ca_49_m120
  lat_top: 51.0
  lat_bottom: 49
  lon_left: -120.0
  lon_right: -118.0
  country: CA
  priority: 3
- name: am_ca_49_m122
  lat_top: 51.0
  lat_bottom: 49
  lon_left: -122.0
  lon_right: -120.0
  country: CA
  priority: 3
- name: am_ca_49_m126
  lat_top: 51.0
  lat_bottom: 49
  lon_left: -126.0
  lon_right: -124.0
  country: CA
  priority: 3
- name: am_ca_49_m128
  lat_top: 51.0
  lat_bottom: 49
  lon_left: -128.0
  lon_right: -126.0
  country: CA
  priority: 3
- name: am_ca_49_m130
  lat_top: 51.0
  lat_bottom: 49
  lon_left: -130.0
  lon_right: -128.0
  country: CA
  priority: 3
- name: am_ca_49_m132
  lat_top: 51.0
  lat_bottom: 49
  lon_left: -132.0
  lon_right: -130.0
  country: CA
  priority: 3
- name: am_ca_49_m134
  lat_top: 51.0
  lat_bottom: 49
  lon_left: -134.0
  lon_right: -132.0
  country: CA
  priority: 3
- name: am_ca_49_m136
  lat_top: 51.0
  lat_bottom: 49
  lon_left: -136.0
  lon_right: -134.0
  country: CA
  priority: 3
- name: am_ca_49_m138
  lat_top: 51.0
  lat_bottom: 49
  lon_left: -138.0
  lon_right: -136.0
  country: CA
  priority: 3
- name: am_ca_49_m140
  lat_top: 51.0
  lat_bottom: 49
  lon_left: -140
  lon_right: -138.0
  country: CA
  priority: 3
- name: am_ca_49_m54
  lat_top: 51.0
  lat_bottom: 49
  lon_left: -54.0
  lon_right: -52.0
  country: CA
  priority: 3
- name: am_ca_49_m56
  lat_top: 51.0
  lat_bottom: 49
  lon_left: -56.0
  lon_right: -54.0
  country: CA
  priority: 3
- name: am_ca_49_m58
  lat_top: 51.0
  lat_bottom: 49
  lon_left: -58.0
  lon_right: -56.0
  country: CA
  priority: 3
- name: am_ca_49_m60
  lat_top: 51.0
  lat_bottom: 49
  lon_left: -60.0
  lon_right: -58.0
  country: CA
  priority: 3
- name: am_ca_49_m62
  lat_top: 51.0
  lat_bottom: 49
  lon_left: -62.0
  lon_right: -60.0
  country: CA
  priority: 3
- name: am_ca_49_m64
  lat_top: 51.0
  lat_bottom: 49
  lon_left: -64.0
  lon_right: -62.0
  country: CA
  priority: 3
- name: am_ca_49_m66
  lat_top: 51.0
  lat_bottom: 49
  lon_left: -66.0
  lon_right: -64.0
  country: CA
  priority: 3
- name: am_ca_49_m68
  lat_top: 51.0
  lat_bottom: 49
  lon_left: -68.0
  lon_right: -66.0
  country: CA
  priority: 3
- name: am_ca_49_m70
  lat_top: 51.0
  lat_bottom: 49
  lon_left: -70.0
  lon_right: -68.0
  country: CA
  priority: 3
- name: am_ca_49_m72
  lat_top: 51.0
  lat_bottom: 49
  lon_left: -72.0
  lon_right: -70.0
  country: CA
  priority: 3
- name: am_ca_49_m74
  lat_top: 51.0
  lat_bottom: 49
  lon_left: -74.0
  lon_right: -72.0
  country: CA
  priority: 3
- name: am_ca_49_m76
  lat_top: 51.0
  lat_bottom: 49
  lon_left: -76.0
  lon_right: -74.0
  country: CA
  priority: 3
- name: am_ca_49_m78
  lat_top: 51.0
  lat_bottom: 49
  lon_left: -78.0
  lon_right: -76.0
  country: CA
  priority: 3
- name: am_ca_49_m80
  lat_top: 51.0
  lat_bottom: 49
  lon_left: -80.0
  lon_right: -78.0
  country: CA
  priority: 3
- name: am_ca_49_m82
  lat_top: 51.0
  lat_bottom: 49
  lon_left: -82.0
  lon_right: -80.0
  country: CA
  priority: 3
- name: am_ca_49_m84
  lat_top: 51.0
  lat_bottom: 49
  lon_left: -84.0
  lon_right: -82.0
  country: CA
  priority: 3
- name: am_ca_49_m86
  lat_top: 51.0
  lat_bottom: 49
  lon_left: -86.0
  lon_right: -84.0
  country: CA
  priority: 3
- name: am_ca_49_m88
  lat_top: 51.0
  lat_bottom: 49
  lon_left: -88.0
  lon_right: -86.0
  country: CA
  priority: 3
- name: am_ca_49_m90
  lat_top: 51.0
  lat_bottom: 49
  lon_left: -90.0
  lon_right: -88.0
  country: CA
  priority: 3
- name: am_ca_49_m92
  lat_top: 51.0
  lat_bottom: 49
  lon_left: -92.0
  lon_right: -90.0
  country: CA
  priority: 3
- name: am_ca_49_m94
  lat_top: 51.0
  lat_bottom: 49
  lon_left: -94.0
  lon_right: -92.0
  country: CA
  priority: 3
- name: am_ca_49_m96
  lat_top: 51.0
  lat_bottom: 49
  lon_left: -96.0
  lon_right: -94.0
  country: CA
  priority: 3
- name: am_ca_51_m100
  lat_top: 53.0
  lat_bottom: 51.0
  lon_left: -100.0
  lon_right: -98.0
  country: CA
  priority: 3
- name: am_ca_51_m102
  lat_top: 53.0
  lat_bottom: 51.0
  lon_left: -102.0
  lon_right: -100.0
  country: CA
  priority: 3
- name: am_ca_51_m104
  lat_top: 53.0
  lat_bottom: 51.0
  lon_left: -104.0
  lon_right: -102.0
  country: CA
  priority: 3
- name: am_ca_51_m106
  lat_top: 53.0
  lat_bottom: 51.0
  lon_left: -106.0
  lon_right: -104.0
  country: CA
  priority: 3
- name: am_ca_51_m108
  lat_top: 53.0
  lat_bottom: 51.0
  lon_left: -108.0
  lon_right: -106.0
  country: CA
  priority: 3
- name: am_ca_51_m110
  lat_top: 53.0
  lat_bottom: 51.0
  lon_left: -110.0
  lon_right: -108.0
  country: CA
  priority: 3
- name: am_ca_51_m112
  lat_top: 53.0
  lat_bottom: 51.0
  lon_left: -112.0
  lon_right: -110.0
  country: CA
  priority: 3
- name: am_ca_51_m114
  lat_top: 53.0
  lat_bottom: 51.0
  lon_left: -114.0
  lon_right: -112.0
  country: CA
  priority: 3
- name: am_ca_51_m118
  lat_top: 53.0
  lat_bottom: 51.0
  lon_left: -118.0
  lon_right: -116.0
  country: CA
  priority: 3
- name: am_ca_51_m120
  lat_top: 53.0
  lat_bottom: 51.0
  lon_left: -120.0
  lon_right: -118.0
  country: CA
  priority: 3
- name: am_ca_51_m122
  lat_top: 53.0
  lat_bottom: 51.0
  lon_left: -122.0
  lon_right: -120.0
  country: CA
  priority: 3
- name: am_ca_51_m124
  lat_top: 53.0
  lat_bottom: 51.0
  lon_left: -124.0
  lon_right: -122.0
  country: CA
  priority: 3
- name: am_ca_51_m126
  lat_top: 53.0
  lat_bottom: 51.0
  lon_left: -126.0
  lon_right: -124.0
  country: CA
  priority: 3
- name: am_ca_51_m128
  lat_top: 53.0
  lat_bottom: 51.0
  lon_left: -128.0
  lon_right: -126.0
  country: CA
  priority: 3
- name: am_ca_51_m130
  lat_top: 53.0
  lat_bottom: 51.0
  lon_left: -130.0
  lon_right: -128.0
  country: CA
  priority: 3
- name: am_ca_51_m132
  lat_top: 53.0
  lat_bottom: 51.0
  lon_left: -132.0
  lon_right: -130.0
  country: CA
  priority: 3
- name: am_ca_51_m134
  lat_top: 53.0
  lat_bottom: 51.0
  lon_left: -134.0
  lon_right: -132.0
  country: CA
  priority: 3
- name: am_ca_51_m136
  lat_top: 53.0
  lat_bottom: 51.0
  lon_left: -136.0
  lon_right: -134.0
  country: CA
  priority: 3
- name: am_ca_51_m138
  lat_top: 53.0
  lat_bottom: 51.0
  lon_left: -138.0
  lon_right: -136.0
  country: CA
  priority: 3
- name: am_ca_51_m140
  lat_top: 53.0
  lat_bottom: 51.0
  lon_left: -140
  lon_right: -138.0
  country: CA
  priority: 3
- name: am_ca_51_m54
  lat_top: 53.0
  lat_bottom: 51.0
  lon_left: -54.0
  lon_right: -52.0
  country: CA
  priority: 3
- name: am_ca_51_m56
  lat_top: 53.0
  lat_bottom: 51.0
  lon_left: -56.0
  lon_right: -54.0
  country: CA
  priority: 3
- name: am_ca_51_m58
  lat_top: 53.0
  lat_bottom: 51.0
  lon_left: -58.0
  lon_right: -56.0
  country: CA
  priority: 3
- name: am_ca_51_m60
  lat_top: 53.0
  lat_bottom: 51.0
  lon_left: -60.0
  lon_right: -58.0
  country: CA
  priority: 3
- name: am_ca_51_m62
  lat_top: 53.0
  lat_bottom: 51.0
  lon_left: -62.0
  lon_right: -60.0
  country: CA
  priority: 3
- name: am_ca_51_m64
  lat_top: 53.0
  lat_bottom: 51.0
  lon_left: -64.0
  lon_right: -62.0
  country: CA
  priority: 3
- name: am_ca_51_m66
  lat_top: 53.0
  lat_bottom: 51.0
  lon_left: -66.0
  lon_right: -64.0
  country: CA
  priority: 3
- name: am_ca_51_m68
  lat_top: 53.0
  lat_bottom: 51.0
  lon_left: -68.0
  lon_right: -66.0
  country: CA
  priority: 3
- name: am_ca_51_m70
  lat_top: 53.0
  lat_bottom: 51.0
  lon_left: -70.0
  lon_right: -68.0
  country: CA
  priority: 3
- name: am_ca_51_m72
  lat_top: 53.0
  lat_bottom: 51.0
  lon_left: -72.0
  lon_right: -70.0
  country: CA
  priority: 3
- name: am_ca_51_m74
  lat_top: 53.0
  lat_bottom: 51.0
  lon_left: -74.0
  lon_right: -72.0
  country: CA
  priority: 3
- name: am_ca_51_m76
  lat_top: 53.0
  lat_bottom: 51.0
  lon_left: -76.0
  lon_right: -74.0
  country: CA
  priority: 3
- name: am_ca_51_m78
  lat_top: 53.0
  lat_bottom: 51.0
  lon_left: -78.0
  lon_right: -76.0
  country: CA
  priority: 3
- name: am_ca_51_m80
  lat_top: 53.0
  lat_bottom: 51.0
  lon_left: -80.0
  lon_right: -78.0
  country: CA
  priority: 3
- name: am_ca_51_m82
  lat_top: 53.0
  lat_bottom: 51.0
  lon_left: -82.0
  lon_right: -80.0
  country: CA
  priority: 3
- name: am_ca_51_m84
  lat_top: 53.0
  lat_bottom: 51.0
  lon_left: -84.0
  lon_right: -82.0
  country: CA
  priority: 3
- name: am_ca_51_m86
  lat_top: 53.0
  lat_bottom: 51.0
  lon_left: -86.0
  lon_right: -84.0
  country: CA
  priority: 3
- name: am_ca_51_m88
  lat_top: 53.0
  lat_bottom: 51.0
  lon_left: -88.0
  lon_right: -86.0
  country: CA
  priority: 3
- name: am_ca_51_m90
  lat_top: 53.0
  lat_bottom: 51.0
  lon_left: -90.0
  lon_right: -88.0
  country: CA
  priority: 3
- name: am_ca_51_m92
  lat_top: 53.0
  lat_bottom: 51.0
  lon_left: -92.0
  lon_right: -90.0
  country: CA
  priority: 3
- name: am_ca_51_m94
  lat_top: 53.0
  lat_bottom: 51.0
  lon_left: -94.0
  lon_right: -92.0
  country: CA
  priority: 3
- name: am_ca_51_m96
  lat_top: 53.0
  lat_bottom: 51.0
  lon_left: -96.0
  lon_right: -94.0
  country: CA
  priority: 3
- name: am_ca_51_m98
  lat_top: 53.0
  lat_bottom: 51.0
  lon_left: -98.0
  lon_right: -96.0
  country: CA
  priority: 3
- name: am_ca_53_m100
  lat_top: 55.0
  lat_bottom: 53.0
  lon_left: -100.0
  lon_right: -98.0
  country: CA
  priority: 3
- name: am_ca_53_m102
  lat_top: 55.0
  lat_bottom: 53.0
  lon_left: -102.0
  lon_right: -100.0
  country: CA
  priority: 3
- name: am_ca_53_m104
  lat_top: 55.0
  lat_bottom: 53.0
  lon_left: -104.0
  lon_right: -102.0
  country: CA
  priority: 3
- name: am_ca_53_m106
  lat_top: 55.0
  lat_bottom: 53.0
  lon_left: -106.0
  lon_right: -104.0
  country: CA
  priority: 3
- name: am_ca_53_m108
  lat_top: 55.0
  lat_bottom: 53.0
  lon_left: -108.0
  lon_right: -106.0
  country: CA
  priority: 3
- name: am_ca_53_m110
  lat_top: 55.0
  lat_bottom: 53.0
  lon_left: -110.0
  lon_right: -108.0
  country: CA
  priority: 3
- name: am_ca_53_m112
  lat_top: 55.0
  lat_bottom: 53.0
  lon_left: -112.0
  lon_right: -110.0
  country: CA
  priority: 3
- name: am_ca_53_m116
  lat_top: 55.0
  lat_bottom: 53.0
  lon_left: -116.0
  lon_right: -114.0
  country: CA
  priority: 3
- name: am_ca_53_m118
  lat_top: 55.0
  lat_bottom: 53.0
  lon_left: -118.0
  lon_right: -116.0
  country: CA
  priority: 3
- name: am_ca_53_m120
  lat_top: 55.0
  lat_bottom: 53.0
  lon_left: -120.0
  lon_right: -118.0
  country: CA
  priority: 3
- name: am_ca_53_m122
  lat_top: 55.0
  lat_bottom: 53.0
  lon_left: -122.0
  lon_right: -120.0
  country: CA
  priority: 3
- name: am_ca_53_m124
  lat_top: 55.0
  lat_bottom: 53.0
  lon_left: -124.0
  lon_right: -122.0
  country: CA
  priority: 3
- name: am_ca_53_m126
  lat_top: 55.0
  lat_bottom: 53.0
  lon_left: -126.0
  lon_right: -124.0
  country: CA
  priority: 3
- name: am_ca_53_m128
  lat_top: 55.0
  lat_bottom: 53.0
  lon_left: -128.0
  lon_right: -126.0
  country: CA
  priority: 3
- name: am_ca_53_m130
  lat_top: 55.0
  lat_bottom: 53.0
  lon_left: -130.0
  lon_right: -128.0
  country: CA
  priority: 3
- name: am_ca_53_m132
  lat_top: 55.0
  lat_bottom: 53.0
  lon_left: -132.0
  lon_right: -130.0
  country: CA
  priority: 3
- name: am_ca_53_m134
  lat_top: 55.0
  lat_bottom: 53.0
  lon_left: -134.0
  lon_right: -132.0
  country: CA
  priority: 3
- name: am_ca_53_m136
  lat_top: 55.0
  lat_bottom: 53.0
  lon_left: -136.0
  lon_right: -134.0
  country: CA
  priority: 3
- name: am_ca_53_m138
  lat_top: 55.0
  lat_bottom: 53.0
  lon_left: -138.0
  lon_right: -136.0
  country: CA
  priority: 3
- name: am_ca_53_m140
  lat_top: 55.0
  lat_bottom: 53.0
  lon_left: -140
  lon_right: -138.0
  country: CA
  priority: 3
- name: am_ca_53_m54
  lat_top: 55.0
  lat_bottom: 53.0
  lon_left: -54.0
  lon_right: -52.0
  country: CA
  priority: 3
- name: am_ca_53_m56
  lat_top: 55.0
  lat_bottom: 53.0
  lon_left: -56.0
  lon_right: -54.0
  country: CA
  priority: 3
- name: am_ca_53_m58
  lat_top: 55.0
  lat_bottom: 53.0
  lon_left: -58.0
  lon_right: -56.0
  country: CA
  priority: 3
- name: am_ca_53_m60
  lat_top: 55.0
  lat_bottom: 53.0
  lon_left: -60.0
  lon_right: -58.0
  country: CA
  priority: 3
- name: am_ca_53_m62
  lat_top: 55.0
  lat_bottom: 53.0
  lon_left: -62.0
  lon_right: -60.0
  country: CA
  priority: 3
- name: am_ca_53_m64
  lat_top: 55.0
  lat_bottom: 53.0
  lon_left: -64.0
  lon_right: -62.0
  country: CA
  priority: 3
- name: am_ca_53_m66
