polling_interval_seconds: 60
waze_server_url: http://localhost:8080
database_path: ./data/waze_asia.db
collection_mode: asia
grid_cells:
- name: abu_dhabi
  lat_top: 24.49
  lat_bottom: 24.41
  lon_left: 54.33
  lon_right: 54.41
  country: AE
  priority: 1
- name: abu_dhabi_e
  lat_top: 24.49
  lat_bottom: 24.41
  lon_left: 54.41
  lon_right: 54.49
  country: AE
  priority: 1
- name: abu_dhabi_n
  lat_top: 24.57
  lat_bottom: 24.49
  lon_left: 54.33
  lon_right: 54.41
  country: AE
  priority: 1
- name: abu_dhabi_n_e
  lat_top: 24.57
  lat_bottom: 24.49
  lon_left: 54.41
  lon_right: 54.49
  country: AE
  priority: 1
- name: abu_dhabi_n_w
  lat_top: 24.57
  lat_bottom: 24.49
  lon_left: 54.25
  lon_right: 54.33
  country: AE
  priority: 1
- name: abu_dhabi_s
  lat_top: 24.41
  lat_bottom: 24.33
  lon_left: 54.33
  lon_right: 54.41
  country: AE
  priority: 1
- name: abu_dhabi_s_e
  lat_top: 24.41
  lat_bottom: 24.33
  lon_left: 54.41
  lon_right: 54.49
  country: AE
  priority: 1
- name: abu_dhabi_s_w
  lat_top: 24.41
  lat_bottom: 24.33
  lon_left: 54.25
  lon_right: 54.33
  country: AE
  priority: 1
- name: abu_dhabi_w
  lat_top: 24.49
  lat_bottom: 24.41
  lon_left: 54.25
  lon_right: 54.33
  country: AE
  priority: 1
- name: ahmedabad
  lat_top: 23.06
  lat_bottom: 22.98
  lon_left: 72.53
  lon_right: 72.61
  country: IN
  priority: 1
- name: ahmedabad_e
  lat_top: 23.06
  lat_bottom: 22.98
  lon_left: 72.61
  lon_right: 72.69
  country: IN
  priority: 1
- name: ahmedabad_n
  lat_top: 23.14
  lat_bottom: 23.06
  lon_left: 72.53
  lon_right: 72.61
  country: IN
  priority: 1
- name: ahmedabad_n_e
  lat_top: 23.14
  lat_bottom: 23.06
  lon_left: 72.61
  lon_right: 72.69
  country: IN
  priority: 1
- name: ahmedabad_n_w
  lat_top: 23.14
  lat_bottom: 23.06
  lon_left: 72.45
  lon_right: 72.53
  country: IN
  priority: 1
- name: ahmedabad_s
  lat_top: 22.98
  lat_bottom: 22.9
  lon_left: 72.53
  lon_right: 72.61
  country: IN
  priority: 1
- name: ahmedabad_s_e
  lat_top: 22.98
  lat_bottom: 22.9
  lon_left: 72.61
  lon_right: 72.69
  country: IN
  priority: 1
- name: ahmedabad_s_w
  lat_top: 22.98
  lat_bottom: 22.9
  lon_left: 72.45
  lon_right: 72.53
  country: IN
  priority: 1
- name: ahmedabad_w
  lat_top: 23.06
  lat_bottom: 22.98
  lon_left: 72.45
  lon_right: 72.53
  country: IN
  priority: 1
- name: almaty
  lat_top: 43.28
  lat_bottom: 43.2
  lon_left: 76.91
  lon_right: 76.99
  country: KZ
  priority: 1
- name: almaty_e
  lat_top: 43.28
  lat_bottom: 43.2
  lon_left: 76.99
  lon_right: 77.07
  country: KZ
  priority: 1
- name: almaty_n
  lat_top: 43.36
  lat_bottom: 43.28
  lon_left: 76.91
  lon_right: 76.99
  country: KZ
  priority: 1
- name: almaty_n_e
  lat_top: 43.36
  lat_bottom: 43.28
  lon_left: 76.99
  lon_right: 77.07
  country: KZ
  priority: 1
- name: almaty_n_w
  lat_top: 43.36
  lat_bottom: 43.28
  lon_left: 76.83
  lon_right: 76.91
  country: KZ
  priority: 1
- name: almaty_s
  lat_top: 43.2
  lat_bottom: 43.12
  lon_left: 76.91
  lon_right: 76.99
  country: KZ
  priority: 1
- name: almaty_s_e
  lat_top: 43.2
  lat_bottom: 43.12
  lon_left: 76.99
  lon_right: 77.07
  country: KZ
  priority: 1
- name: almaty_s_w
  lat_top: 43.2
  lat_bottom: 43.12
  lon_left: 76.83
  lon_right: 76.91
  country: KZ
  priority: 1
- name: almaty_w
  lat_top: 43.28
  lat_bottom: 43.2
  lon_left: 76.83
  lon_right: 76.91
  country: KZ
  priority: 1
- name: amman
  lat_top: 31.99
  lat_bottom: 31.91
  lon_left: 35.89
  lon_right: 35.97
  country: JO
  priority: 1
- name: amman_e
  lat_top: 31.99
  lat_bottom: 31.91
  lon_left: 35.97
  lon_right: 36.05
  country: JO
  priority: 1
- name: amman_n
  lat_top: 32.07
  lat_bottom: 31.99
  lon_left: 35.89
  lon_right: 35.97
  country: JO
  priority: 1
- name: amman_n_e
  lat_top: 32.07
  lat_bottom: 31.99
  lon_left: 35.97
  lon_right: 36.05
  country: JO
  priority: 1
- name: amman_n_w
  lat_top: 32.07
  lat_bottom: 31.99
  lon_left: 35.81
  lon_right: 35.89
  country: JO
  priority: 1
- name: amman_s
  lat_top: 31.91
  lat_bottom: 31.83
  lon_left: 35.89
  lon_right: 35.97
  country: JO
  priority: 1
- name: amman_s_e
  lat_top: 31.91
  lat_bottom: 31.83
  lon_left: 35.97
  lon_right: 36.05
  country: JO
  priority: 1
- name: amman_s_w
  lat_top: 31.91
  lat_bottom: 31.83
  lon_left: 35.81
  lon_right: 35.89
  country: JO
  priority: 1
- name: amman_w
  lat_top: 31.99
  lat_bottom: 31.91
  lon_left: 35.81
  lon_right: 35.89
  country: JO
  priority: 1
- name: ankara
  lat_top: 39.97
  lat_bottom: 39.89
  lon_left: 32.82
  lon_right: 32.9
  country: TR
  priority: 1
- name: ankara_e
  lat_top: 39.97
  lat_bottom: 39.89
  lon_left: 32.9
  lon_right: 32.98
  country: TR
  priority: 1
- name: ankara_n
  lat_top: 40.05
  lat_bottom: 39.97
  lon_left: 32.82
  lon_right: 32.9
  country: TR
  priority: 1
- name: ankara_n_e
  lat_top: 40.05
  lat_bottom: 39.97
  lon_left: 32.9
  lon_right: 32.98
  country: TR
  priority: 1
- name: ankara_n_w
  lat_top: 40.05
  lat_bottom: 39.97
  lon_left: 32.74
  lon_right: 32.82
  country: TR
  priority: 1
- name: ankara_s
  lat_top: 39.89
  lat_bottom: 39.81
  lon_left: 32.82
  lon_right: 32.9
  country: TR
  priority: 1
- name: ankara_s_e
  lat_top: 39.89
  lat_bottom: 39.81
  lon_left: 32.9
  lon_right: 32.98
  country: TR
  priority: 1
- name: ankara_s_w
  lat_top: 39.89
  lat_bottom: 39.81
  lon_left: 32.74
  lon_right: 32.82
  country: TR
  priority: 1
- name: ankara_w
  lat_top: 39.97
  lat_bottom: 39.89
  lon_left: 32.74
  lon_right: 32.82
  country: TR
  priority: 1
- name: bandung
  lat_top: -6.87
  lat_bottom: -6.95
  lon_left: 107.57
  lon_right: 107.65
  country: ID
  priority: 1
- name: bandung_e
  lat_top: -6.87
  lat_bottom: -6.95
  lon_left: 107.65
  lon_right: 107.73
  country: ID
  priority: 1
- name: bandung_n
  lat_top: -6.79
  lat_bottom: -6.87
  lon_left: 107.57
  lon_right: 107.65
  country: ID
  priority: 1
- name: bandung_n_e
  lat_top: -6.79
  lat_bottom: -6.87
  lon_left: 107.65
  lon_right: 107.73
  country: ID
  priority: 1
- name: bandung_n_w
  lat_top: -6.79
  lat_bottom: -6.87
  lon_left: 107.49
  lon_right: 107.57
  country: ID
  priority: 1
- name: bandung_s
  lat_top: -6.95
  lat_bottom: -7.03
  lon_left: 107.57
  lon_right: 107.65
  country: ID
  priority: 1
- name: bandung_s_e
  lat_top: -6.95
  lat_bottom: -7.03
  lon_left: 107.65
  lon_right: 107.73
  country: ID
  priority: 1
- name: bandung_s_w
  lat_top: -6.95
  lat_bottom: -7.03
  lon_left: 107.49
  lon_right: 107.57
  country: ID
  priority: 1
- name: bandung_w
  lat_top: -6.87
  lat_bottom: -6.95
  lon_left: 107.49
  lon_right: 107.57
  country: ID
  priority: 1
- name: bangalore
  lat_top: 13.01
  lat_bottom: 12.93
  lon_left: 77.55
  lon_right: 77.63
  country: IN
  priority: 1
- name: bangalore_e
  lat_top: 13.01
  lat_bottom: 12.93
  lon_left: 77.63
  lon_right: 77.71
  country: IN
  priority: 1
- name: bangalore_n
  lat_top: 13.09
  lat_bottom: 13.01
  lon_left: 77.55
  lon_right: 77.63
  country: IN
  priority: 1
- name: bangalore_n_e
  lat_top: 13.09
  lat_bottom: 13.01
  lon_left: 77.63
  lon_right: 77.71
  country: IN
  priority: 1
- name: bangalore_n_w
  lat_top: 13.09
  lat_bottom: 13.01
  lon_left: 77.47
  lon_right: 77.55
  country: IN
  priority: 1
- name: bangalore_s
  lat_top: 12.93
  lat_bottom: 12.85
  lon_left: 77.55
  lon_right: 77.63
  country: IN
  priority: 1
- name: bangalore_s_e
  lat_top: 12.93
  lat_bottom: 12.85
  lon_left: 77.63
  lon_right: 77.71
  country: IN
  priority: 1
- name: bangalore_s_w
  lat_top: 12.93
  lat_bottom: 12.85
  lon_left: 77.47
  lon_right: 77.55
  country: IN
  priority: 1
- name: bangalore_w
  lat_top: 13.01
  lat_bottom: 12.93
  lon_left: 77.47
  lon_right: 77.55
  country: IN
  priority: 1
- name: bangkok
  lat_top: 13.8
  lat_bottom: 13.72
  lon_left: 100.46
  lon_right: 100.54
  country: TH
  priority: 1
- name: bangkok_e
  lat_top: 13.8
  lat_bottom: 13.72
  lon_left: 100.54
  lon_right: 100.62
  country: TH
  priority: 1
- name: bangkok_n
  lat_top: 13.88
  lat_bottom: 13.8
  lon_left: 100.46
  lon_right: 100.54
  country: TH
  priority: 1
- name: bangkok_n_e
  lat_top: 13.88
  lat_bottom: 13.8
  lon_left: 100.54
  lon_right: 100.62
  country: TH
  priority: 1
- name: bangkok_n_w
  lat_top: 13.88
  lat_bottom: 13.8
  lon_left: 100.38
  lon_right: 100.46
  country: TH
  priority: 1
- name: bangkok_s
  lat_top: 13.72
  lat_bottom: 13.64
  lon_left: 100.46
  lon_right: 100.54
  country: TH
  priority: 1
- name: bangkok_s_e
  lat_top: 13.72
  lat_bottom: 13.64
  lon_left: 100.54
  lon_right: 100.62
  country: TH
  priority: 1
- name: bangkok_s_w
  lat_top: 13.72
  lat_bottom: 13.64
  lon_left: 100.38
  lon_right: 100.46
  country: TH
  priority: 1
- name: bangkok_w
  lat_top: 13.8
  lat_bottom: 13.72
  lon_left: 100.38
  lon_right: 100.46
  country: TH
  priority: 1
- name: beijing
  lat_top: 39.94
  lat_bottom: 39.86
  lon_left: 116.37
  lon_right: 116.45
  country: CN
  priority: 1
- name: beijing_e
  lat_top: 39.94
  lat_bottom: 39.86
  lon_left: 116.45
  lon_right: 116.53
  country: CN
  priority: 1
- name: beijing_n
  lat_top: 40.02
  lat_bottom: 39.94
  lon_left: 116.37
  lon_right: 116.45
  country: CN
  priority: 1
- name: beijing_n_e
  lat_top: 40.02
  lat_bottom: 39.94
  lon_left: 116.45
  lon_right: 116.53
  country: CN
  priority: 1
- name: beijing_n_w
  lat_top: 40.02
  lat_bottom: 39.94
  lon_left: 116.29
  lon_right: 116.37
  country: CN
  priority: 1
- name: beijing_s
  lat_top: 39.86
  lat_bottom: 39.78
  lon_left: 116.37
  lon_right: 116.45
  country: CN
  priority: 1
- name: beijing_s_e
  lat_top: 39.86
  lat_bottom: 39.78
  lon_left: 116.45
  lon_right: 116.53
  country: CN
  priority: 1
- name: beijing_s_w
  lat_top: 39.86
  lat_bottom: 39.78
  lon_left: 116.29
  lon_right: 116.37
  country: CN
  priority: 1
- name: beijing_w
  lat_top: 39.94
  lat_bottom: 39.86
  lon_left: 116.29
  lon_right: 116.37
  country: CN
  priority: 1
- name: beirut
  lat_top: 33.93
  lat_bottom: 33.85
  lon_left: 35.46
  lon_right: 35.54
  country: LB
  priority: 1
- name: beirut_e
  lat_top: 33.93
  lat_bottom: 33.85
  lon_left: 35.54
  lon_right: 35.62
  country: LB
  priority: 1
- name: beirut_n
  lat_top: 34.01
  lat_bottom: 33.93
  lon_left: 35.46
  lon_right: 35.54
  country: LB
  priority: 1
- name: beirut_n_e
  lat_top: 34.01
  lat_bottom: 33.93
  lon_left: 35.54
  lon_right: 35.62
  country: LB
  priority: 1
- name: beirut_n_w
  lat_top: 34.01
  lat_bottom: 33.93
  lon_left: 35.38
  lon_right: 35.46
  country: LB
  priority: 1
- name: beirut_s
  lat_top: 33.85
  lat_bottom: 33.77
  lon_left: 35.46
  lon_right: 35.54
  country: LB
  priority: 1
- name: beirut_s_e
  lat_top: 33.85
  lat_bottom: 33.77
  lon_left: 35.54
  lon_right: 35.62
  country: LB
  priority: 1
- name: beirut_s_w
  lat_top: 33.85
  lat_bottom: 33.77
  lon_left: 35.38
  lon_right: 35.46
  country: LB
  priority: 1
- name: beirut_w
  lat_top: 33.93
  lat_bottom: 33.85
  lon_left: 35.38
  lon_right: 35.46
  country: LB
  priority: 1
- name: busan
  lat_top: 35.22
  lat_bottom: 35.14
  lon_left: 129.04
  lon_right: 129.12
  country: KR
  priority: 1
- name: busan_e
  lat_top: 35.22
  lat_bottom: 35.14
  lon_left: 129.12
  lon_right: 129.2
  country: KR
  priority: 1
- name: busan_n
  lat_top: 35.3
  lat_bottom: 35.22
  lon_left: 129.04
  lon_right: 129.12
  country: KR
  priority: 1
- name: busan_n_e
  lat_top: 35.3
  lat_bottom: 35.22
  lon_left: 129.12
  lon_right: 129.2
  country: KR
  priority: 1
- name: busan_n_w
  lat_top: 35.3
  lat_bottom: 35.22
  lon_left: 128.96
  lon_right: 129.04
  country: KR
  priority: 1
- name: busan_s
  lat_top: 35.14
  lat_bottom: 35.06
  lon_left: 129.04
  lon_right: 129.12
  country: KR
  priority: 1
- name: busan_s_e
  lat_top: 35.14
  lat_bottom: 35.06
  lon_left: 129.12
  lon_right: 129.2
  country: KR
  priority: 1
- name: busan_s_w
  lat_top: 35.14
  lat_bottom: 35.06
  lon_left: 128.96
  lon_right: 129.04
  country: KR
  priority: 1
- name: busan_w
  lat_top: 35.22
  lat_bottom: 35.14
  lon_left: 128.96
  lon_right: 129.04
  country: KR
  priority: 1
- name: cebu
  lat_top: 10.36
  lat_bottom: 10.28
  lon_left: 123.85
  lon_right: 123.93
  country: PH
  priority: 1
- name: cebu_e
  lat_top: 10.36
  lat_bottom: 10.28
  lon_left: 123.93
  lon_right: 124.01
  country: PH
  priority: 1
- name: cebu_n
  lat_top: 10.44
  lat_bottom: 10.36
  lon_left: 123.85
  lon_right: 123.93
  country: PH
  priority: 1
- name: cebu_n_e
  lat_top: 10.44
  lat_bottom: 10.36
  lon_left: 123.93
  lon_right: 124.01
  country: PH
  priority: 1
- name: cebu_n_w
  lat_top: 10.44
  lat_bottom: 10.36
  lon_left: 123.77
  lon_right: 123.85
  country: PH
  priority: 1
- name: cebu_s
  lat_top: 10.28
  lat_bottom: 10.2
  lon_left: 123.85
  lon_right: 123.93
  country: PH
  priority: 1
- name: cebu_s_e
  lat_top: 10.28
  lat_bottom: 10.2
  lon_left: 123.93
  lon_right: 124.01
  country: PH
  priority: 1
- name: cebu_s_w
  lat_top: 10.28
  lat_bottom: 10.2
  lon_left: 123.77
  lon_right: 123.85
  country: PH
  priority: 1
- name: cebu_w
  lat_top: 10.36
  lat_bottom: 10.28
  lon_left: 123.77
  lon_right: 123.85
  country: PH
  priority: 1
- name: chengdu
  lat_top: 30.61
  lat_bottom: 30.53
  lon_left: 104.03
  lon_right: 104.11
  country: CN
  priority: 1
- name: chengdu_e
  lat_top: 30.61
  lat_bottom: 30.53
  lon_left: 104.11
  lon_right: 104.19
  country: CN
  priority: 1
- name: chengdu_n
  lat_top: 30.69
  lat_bottom: 30.61
  lon_left: 104.03
  lon_right: 104.11
  country: CN
  priority: 1
- name: chengdu_n_e
  lat_top: 30.69
  lat_bottom: 30.61
  lon_left: 104.11
  lon_right: 104.19
  country: CN
  priority: 1
- name: chengdu_n_w
  lat_top: 30.69
  lat_bottom: 30.61
  lon_left: 103.95
  lon_right: 104.03
  country: CN
  priority: 1
- name: chengdu_s
  lat_top: 30.53
  lat_bottom: 30.45
  lon_left: 104.03
  lon_right: 104.11
  country: CN
  priority: 1
- name: chengdu_s_e
  lat_top: 30.53
  lat_bottom: 30.45
  lon_left: 104.11
  lon_right: 104.19
  country: CN
  priority: 1
- name: chengdu_s_w
  lat_top: 30.53
  lat_bottom: 30.45
  lon_left: 103.95
  lon_right: 104.03
  country: CN
  priority: 1
- name: chengdu_w
  lat_top: 30.61
  lat_bottom: 30.53
  lon_left: 103.95
  lon_right: 104.03
  country: CN
  priority: 1
- name: chennai
  lat_top: 13.12
  lat_bottom: 13.04
  lon_left: 80.23
  lon_right: 80.31
  country: IN
  priority: 1
- name: chennai_e
  lat_top: 13.12
  lat_bottom: 13.04
  lon_left: 80.31
  lon_right: 80.39
  country: IN
  priority: 1
- name: chennai_n
  lat_top: 13.2
  lat_bottom: 13.12
  lon_left: 80.23
  lon_right: 80.31
  country: IN
  priority: 1
- name: chennai_n_e
  lat_top: 13.2
  lat_bottom: 13.12
  lon_left: 80.31
  lon_right: 80.39
  country: IN
  priority: 1
- name: chennai_n_w
  lat_top: 13.2
  lat_bottom: 13.12
  lon_left: 80.15
  lon_right: 80.23
  country: IN
  priority: 1
- name: chennai_s
  lat_top: 13.04
  lat_bottom: 12.96
  lon_left: 80.23
  lon_right: 80.31
  country: IN
  priority: 1
- name: chennai_s_e
  lat_top: 13.04
  lat_bottom: 12.96
  lon_left: 80.31
  lon_right: 80.39
  country: IN
  priority: 1
- name: chennai_s_w
  lat_top: 13.04
  lat_bottom: 12.96
  lon_left: 80.15
  lon_right: 80.23
  country: IN
  priority: 1
- name: chennai_w
  lat_top: 13.12
  lat_bottom: 13.04
  lon_left: 80.15
  lon_right: 80.23
  country: IN
  priority: 1
- name: chiang_mai
  lat_top: 18.83
  lat_bottom: 18.75
  lon_left: 98.94
  lon_right: 99.02
  country: TH
  priority: 1
- name: chiang_mai_e
  lat_top: 18.83
  lat_bottom: 18.75
  lon_left: 99.02
  lon_right: 99.1
  country: TH
  priority: 1
- name: chiang_mai_n
  lat_top: 18.91
  lat_bottom: 18.83
  lon_left: 98.94
  lon_right: 99.02
  country: TH
  priority: 1
- name: chiang_mai_n_e
  lat_top: 18.91
  lat_bottom: 18.83
  lon_left: 99.02
  lon_right: 99.1
  country: TH
  priority: 1
- name: chiang_mai_n_w
  lat_top: 18.91
  lat_bottom: 18.83
  lon_left: 98.86
  lon_right: 98.94
  country: TH
  priority: 1
- name: chiang_mai_s
  lat_top: 18.75
  lat_bottom: 18.67
  lon_left: 98.94
  lon_right: 99.02
  country: TH
  priority: 1
- name: chiang_mai_s_e
  lat_top: 18.75
  lat_bottom: 18.67
  lon_left: 99.02
  lon_right: 99.1
  country: TH
  priority: 1
- name: chiang_mai_s_w
  lat_top: 18.75
  lat_bottom: 18.67
  lon_left: 98.86
  lon_right: 98.94
  country: TH
  priority: 1
- name: chiang_mai_w
  lat_top: 18.83
  lat_bottom: 18.75
  lon_left: 98.86
  lon_right: 98.94
  country: TH
  priority: 1
- name: chittagong
  lat_top: 22.4
  lat_bottom: 22.32
  lon_left: 91.74
  lon_right: 91.82
  country: BD
  priority: 1
- name: chittagong_e
  lat_top: 22.4
  lat_bottom: 22.32
  lon_left: 91.82
  lon_right: 91.9
  country: BD
  priority: 1
- name: chittagong_n
  lat_top: 22.48
  lat_bottom: 22.4
  lon_left: 91.74
  lon_right: 91.82
  country: BD
  priority: 1
- name: chittagong_n_e
  lat_top: 22.48
  lat_bottom: 22.4
  lon_left: 91.82
  lon_right: 91.9
  country: BD
  priority: 1
- name: chittagong_n_w
  lat_top: 22.48
  lat_bottom: 22.4
  lon_left: 91.66
  lon_right: 91.74
  country: BD
  priority: 1
- name: chittagong_s
  lat_top: 22.32
  lat_bottom: 22.24
  lon_left: 91.74
  lon_right: 91.82
  country: BD
  priority: 1
- name: chittagong_s_e
  lat_top: 22.32
  lat_bottom: 22.24
  lon_left: 91.82
  lon_right: 91.9
  country: BD
  priority: 1
- name: chittagong_s_w
  lat_top: 22.32
  lat_bottom: 22.24
  lon_left: 91.66
  lon_right: 91.74
  country: BD
  priority: 1
- name: chittagong_w
  lat_top: 22.4
  lat_bottom: 22.32
  lon_left: 91.66
  lon_right: 91.74
  country: BD
  priority: 1
- name: chongqing
  lat_top: 29.6
  lat_bottom: 29.52
  lon_left: 106.51
  lon_right: 106.59
  country: CN
  priority: 1
- name: chongqing_e
  lat_top: 29.6
  lat_bottom: 29.52
  lon_left: 106.59
  lon_right: 106.67
  country: CN
  priority: 1
- name: chongqing_n
  lat_top: 29.68
  lat_bottom: 29.6
  lon_left: 106.51
  lon_right: 106.59
  country: CN
  priority: 1
- name: chongqing_n_e
  lat_top: 29.68
  lat_bottom: 29.6
  lon_left: 106.59
  lon_right: 106.67
  country: CN
  priority: 1
- name: chongqing_n_w
  lat_top: 29.68
  lat_bottom: 29.6
  lon_left: 106.43
  lon_right: 106.51
  country: CN
  priority: 1
- name: chongqing_s
  lat_top: 29.52
  lat_bottom: 29.44
  lon_left: 106.51
  lon_right: 106.59
  country: CN
  priority: 1
- name: chongqing_s_e
  lat_top: 29.52
  lat_bottom: 29.44
  lon_left: 106.59
  lon_right: 106.67
  country: CN
  priority: 1
- name: chongqing_s_w
  lat_top: 29.52
  lat_bottom: 29.44
  lon_left: 106.43
  lon_right: 106.51
  country: CN
  priority: 1
- name: chongqing_w
  lat_top: 29.6
  lat_bottom: 29.52
  lon_left: 106.43
  lon_right: 106.51
  country: CN
  priority: 1
- name: daegu
  lat_top: 35.91
  lat_bottom: 35.83
  lon_left: 128.56
  lon_right: 128.64
  country: KR
  priority: 1
- name: daegu_e
  lat_top: 35.91
  lat_bottom: 35.83
  lon_left: 128.64
  lon_right: 128.72
  country: KR
  priority: 1
- name: daegu_n
  lat_top: 35.99
  lat_bottom: 35.91
  lon_left: 128.56
  lon_right: 128.64
  country: KR
  priority: 1
- name: daegu_n_e
  lat_top: 35.99
  lat_bottom: 35.91
  lon_left: 128.64
  lon_right: 128.72
  country: KR
  priority: 1
- name: daegu_n_w
  lat_top: 35.99
  lat_bottom: 35.91
  lon_left: 128.48
  lon_right: 128.56
  country: KR
  priority: 1
- name: daegu_s
  lat_top: 35.83
  lat_bottom: 35.75
  lon_left: 128.56
  lon_right: 128.64
  country: KR
  priority: 1
- name: daegu_s_e
  lat_top: 35.83
  lat_bottom: 35.75
  lon_left: 128.64
  lon_right: 128.72
  country: KR
  priority: 1
- name: daegu_s_w
  lat_top: 35.83
  lat_bottom: 35.75
  lon_left: 128.48
  lon_right: 128.56
  country: KR
  priority: 1
- name: daegu_w
  lat_top: 35.91
  lat_bottom: 35.83
  lon_left: 128.48
  lon_right: 128.56
  country: KR
  priority: 1
- name: daejeon
  lat_top: 36.39
  lat_bottom: 36.31
  lon_left: 127.34
  lon_right: 127.42
  country: KR
  priority: 1
- name: daejeon_e
  lat_top: 36.39
  lat_bottom: 36.31
  lon_left: 127.42
  lon_right: 127.5
  country: KR
  priority: 1
- name: daejeon_n
  lat_top: 36.47
  lat_bottom: 36.39
  lon_left: 127.34
  lon_right: 127.42
  country: KR
  priority: 1
- name: daejeon_n_e
  lat_top: 36.47
  lat_bottom: 36.39
  lon_left: 127.42
  lon_right: 127.5
  country: KR
  priority: 1
- name: daejeon_n_w
  lat_top: 36.47
  lat_bottom: 36.39
  lon_left: 127.26
  lon_right: 127.34
  country: KR
  priority: 1
- name: daejeon_s
  lat_top: 36.31
  lat_bottom: 36.23
  lon_left: 127.34
  lon_right: 127.42
  country: KR
  priority: 1
- name: daejeon_s_e
  lat_top: 36.31
  lat_bottom: 36.23
  lon_left: 127.42
  lon_right: 127.5
  country: KR
  priority: 1
- name: daejeon_s_w
  lat_top: 36.31
  lat_bottom: 36.23
  lon_left: 127.26
  lon_right: 127.34
  country: KR
  priority: 1
- name: daejeon_w
  lat_top: 36.39
  lat_bottom: 36.31
  lon_left: 127.26
  lon_right: 127.34
  country: KR
  priority: 1
- name: davao
  lat_top: 7.23
  lat_bottom: 7.15
  lon_left: 125.42
  lon_right: 125.5
  country: PH
  priority: 1
- name: davao_e
  lat_top: 7.23
  lat_bottom: 7.15
  lon_left: 125.5
  lon_right: 125.58
  country: PH
  priority: 1
- name: davao_n
  lat_top: 7.31
  lat_bottom: 7.23
  lon_left: 125.42
  lon_right: 125.5
  country: PH
  priority: 1
- name: davao_n_e
  lat_top: 7.31
  lat_bottom: 7.23
  lon_left: 125.5
  lon_right: 125.58
  country: PH
  priority: 1
- name: davao_n_w
  lat_top: 7.31
  lat_bottom: 7.23
  lon_left: 125.34
  lon_right: 125.42
  country: PH
  priority: 1
- name: davao_s
  lat_top: 7.15
  lat_bottom: 7.07
  lon_left: 125.42
  lon_right: 125.5
  country: PH
  priority: 1
- name: davao_s_e
  lat_top: 7.15
  lat_bottom: 7.07
  lon_left: 125.5
  lon_right: 125.58
  country: PH
  priority: 1
- name: davao_s_w
  lat_top: 7.15
  lat_bottom: 7.07
  lon_left: 125.34
  lon_right: 125.42
  country: PH
  priority: 1
- name: davao_w
  lat_top: 7.23
  lat_bottom: 7.15
  lon_left: 125.34
  lon_right: 125.42
  country: PH
  priority: 1
- name: delhi
  lat_top: 28.65
  lat_bottom: 28.57
  lon_left: 77.17
  lon_right: 77.25
  country: IN
  priority: 1
- name: delhi_e
  lat_top: 28.65
  lat_bottom: 28.57
  lon_left: 77.25
  lon_right: 77.33
  country: IN
  priority: 1
- name: delhi_n
  lat_top: 28.73
  lat_bottom: 28.65
  lon_left: 77.17
  lon_right: 77.25
  country: IN
  priority: 1
- name: delhi_n_e
  lat_top: 28.73
  lat_bottom: 28.65
  lon_left: 77.25
  lon_right: 77.33
  country: IN
  priority: 1
- name: delhi_n_w
  lat_top: 28.73
  lat_bottom: 28.65
  lon_left: 77.09
  lon_right: 77.17
  country: IN
  priority: 1
- name: delhi_s
  lat_top: 28.57
  lat_bottom: 28.49
  lon_left: 77.17
  lon_right: 77.25
  country: IN
  priority: 1
- name: delhi_s_e
  lat_top: 28.57
  lat_bottom: 28.49
  lon_left: 77.25
  lon_right: 77.33
  country: IN
  priority: 1
- name: delhi_s_w
  lat_top: 28.57
  lat_bottom: 28.49
  lon_left: 77.09
  lon_right: 77.17
  country: IN
  priority: 1
- name: delhi_w
  lat_top: 28.65
  lat_bottom: 28.57
  lon_left: 77.09
  lon_right: 77.17
  country: IN
  priority: 1
- name: dhaka
  lat_top: 23.85
  lat_bottom: 23.77
  lon_left: 90.37
  lon_right: 90.45
  country: BD
  priority: 1
- name: dhaka_e
  lat_top: 23.85
  lat_bottom: 23.77
  lon_left: 90.45
  lon_right: 90.53
  country: BD
  priority: 1
- name: dhaka_n
  lat_top: 23.93
  lat_bottom: 23.85
  lon_left: 90.37
  lon_right: 90.45
  country: BD
  priority: 1
- name: dhaka_n_e
  lat_top: 23.93
  lat_bottom: 23.85
  lon_left: 90.45
  lon_right: 90.53
  country: BD
  priority: 1
- name: dhaka_n_w
  lat_top: 23.93
  lat_bottom: 23.85
  lon_left: 90.29
  lon_right: 90.37
  country: BD
  priority: 1
- name: dhaka_s
  lat_top: 23.77
  lat_bottom: 23.69
  lon_left: 90.37
  lon_right: 90.45
  country: BD
  priority: 1
- name: dhaka_s_e
  lat_top: 23.77
  lat_bottom: 23.69
  lon_left: 90.45
  lon_right: 90.53
  country: BD
  priority: 1
- name: dhaka_s_w
  lat_top: 23.77
  lat_bottom: 23.69
  lon_left: 90.29
  lon_right: 90.37
  country: BD
  priority: 1
- name: dhaka_w
  lat_top: 23.85
  lat_bottom: 23.77
  lon_left: 90.29
  lon_right: 90.37
  country: BD
  priority: 1
- name: doha
  lat_top: 25.33
  lat_bottom: 25.25
  lon_left: 51.49
  lon_right: 51.57
  country: QA
  priority: 1
- name: doha_e
  lat_top: 25.33
  lat_bottom: 25.25
  lon_left: 51.57
  lon_right: 51.65
  country: QA
  priority: 1
- name: doha_n
  lat_top: 25.41
  lat_bottom: 25.33
  lon_left: 51.49
  lon_right: 51.57
  country: QA
  priority: 1
- name: doha_n_e
  lat_top: 25.41
  lat_bottom: 25.33
  lon_left: 51.57
  lon_right: 51.65
  country: QA
  priority: 1
- name: doha_n_w
  lat_top: 25.41
  lat_bottom: 25.33
  lon_left: 51.41
  lon_right: 51.49
  country: QA
  priority: 1
- name: doha_s
  lat_top: 25.25
  lat_bottom: 25.17
  lon_left: 51.49
  lon_right: 51.57
  country: QA
  priority: 1
- name: doha_s_e
  lat_top: 25.25
  lat_bottom: 25.17
  lon_left: 51.57
  lon_right: 51.65
  country: QA
  priority: 1
- name: doha_s_w
  lat_top: 25.25
  lat_bottom: 25.17
  lon_left: 51.41
  lon_right: 51.49
  country: QA
  priority: 1
- name: doha_w
  lat_top: 25.33
  lat_bottom: 25.25
  lon_left: 51.41
  lon_right: 51.49
  country: QA
  priority: 1
- name: dubai
  lat_top: 25.24
  lat_bottom: 25.16
  lon_left: 55.23
  lon_right: 55.31
  country: AE
  priority: 1
- name: dubai_e
  lat_top: 25.24
  lat_bottom: 25.16
  lon_left: 55.31
  lon_right: 55.39
  country: AE
  priority: 1
- name: dubai_n
  lat_top: 25.32
  lat_bottom: 25.24
  lon_left: 55.23
  lon_right: 55.31
  country: AE
  priority: 1
- name: dubai_n_e
  lat_top: 25.32
  lat_bottom: 25.24
  lon_left: 55.31
  lon_right: 55.39
  country: AE
  priority: 1
- name: dubai_n_w
  lat_top: 25.32
  lat_bottom: 25.24
  lon_left: 55.15
  lon_right: 55.23
  country: AE
  priority: 1
- name: dubai_s
  lat_top: 25.16
  lat_bottom: 25.08
  lon_left: 55.23
  lon_right: 55.31
  country: AE
  priority: 1
- name: dubai_s_e
  lat_top: 25.16
  lat_bottom: 25.08
  lon_left: 55.31
  lon_right: 55.39
  country: AE
  priority: 1
- name: dubai_s_w
  lat_top: 25.16
  lat_bottom: 25.08
  lon_left: 55.15
  lon_right: 55.23
  country: AE
  priority: 1
- name: dubai_w
  lat_top: 25.24
  lat_bottom: 25.16
  lon_left: 55.15
  lon_right: 55.23
  country: AE
  priority: 1
- name: fukuoka
  lat_top: 33.63
  lat_bottom: 33.55
  lon_left: 130.36
  lon_right: 130.44
  country: JP
  priority: 1
- name: fukuoka_e
  lat_top: 33.63
  lat_bottom: 33.55
  lon_left: 130.44
  lon_right: 130.52
  country: JP
  priority: 1
- name: fukuoka_n
  lat_top: 33.71
  lat_bottom: 33.63
  lon_left: 130.36
  lon_right: 130.44
  country: JP
  priority: 1
- name: fukuoka_n_e
  lat_top: 33.71
  lat_bottom: 33.63
  lon_left: 130.44
  lon_right: 130.52
  country: JP
  priority: 1
- name: fukuoka_n_w
  lat_top: 33.71
  lat_bottom: 33.63
  lon_left: 130.28
  lon_right: 130.36
  country: JP
  priority: 1
- name: fukuoka_s
  lat_top: 33.55
  lat_bottom: 33.47
  lon_left: 130.36
  lon_right: 130.44
  country: JP
  priority: 1
- name: fukuoka_s_e
  lat_top: 33.55
  lat_bottom: 33.47
  lon_left: 130.44
  lon_right: 130.52
  country: JP
  priority: 1
- name: fukuoka_s_w
  lat_top: 33.55
  lat_bottom: 33.47
  lon_left: 130.28
  lon_right: 130.36
  country: JP
  priority: 1
- name: fukuoka_w
  lat_top: 33.63
  lat_bottom: 33.55
  lon_left: 130.28
  lon_right: 130.36
  country: JP
  priority: 1
- name: guangzhou
  lat_top: 23.17
  lat_bottom: 23.09
  lon_left: 113.22
  lon_right: 113.3
  country: CN
  priority: 1
- name: guangzhou_e
  lat_top: 23.17
  lat_bottom: 23.09
  lon_left: 113.3
  lon_right: 113.38
  country: CN
  priority: 1
- name: guangzhou_n
  lat_top: 23.25
  lat_bottom: 23.17
  lon_left: 113.22
  lon_right: 113.3
  country: CN
  priority: 1
- name: guangzhou_n_e
  lat_top: 23.25
  lat_bottom: 23.17
  lon_left: 113.3
  lon_right: 113.38
  country: CN
  priority: 1
- name: guangzhou_n_w
  lat_top: 23.25
  lat_bottom: 23.17
  lon_left: 113.14
  lon_right: 113.22
  country: CN
  priority: 1
- name: guangzhou_s
  lat_top: 23.09
  lat_bottom: 23.01
  lon_left: 113.22
  lon_right: 113.3
  country: CN
  priority: 1
- name: guangzhou_s_e
  lat_top: 23.09
  lat_bottom: 23.01
  lon_left: 113.3
  lon_right: 113.38
  country: CN
  priority: 1
- name: guangzhou_s_w
  lat_top: 23.09
  lat_bottom: 23.01
  lon_left: 113.14
  lon_right: 113.22
  country: CN
  priority: 1
- name: guangzhou_w
  lat_top: 23.17
  lat_bottom: 23.09
  lon_left: 113.14
  lon_right: 113.22
  country: CN
  priority: 1
- name: hangzhou
  lat_top: 30.31
  lat_bottom: 30.23
  lon_left: 120.11
  lon_right: 120.19
  country: CN
  priority: 1
- name: hangzhou_e
  lat_top: 30.31
  lat_bottom: 30.23
  lon_left: 120.19
  lon_right: 120.27
  country: CN
  priority: 1
- name: hangzhou_n
  lat_top: 30.39
  lat_bottom: 30.31
  lon_left: 120.11
  lon_right: 120.19
  country: CN
  priority: 1
- name: hangzhou_n_e
  lat_top: 30.39
  lat_bottom: 30.31
  lon_left: 120.19
  lon_right: 120.27
  country: CN
  priority: 1
- name: hangzhou_n_w
  lat_top: 30.39
  lat_bottom: 30.31
  lon_left: 120.03
  lon_right: 120.11
  country: CN
  priority: 1
- name: hangzhou_s
  lat_top: 30.23
  lat_bottom: 30.15
  lon_left: 120.11
  lon_right: 120.19
  country: CN
  priority: 1
- name: hangzhou_s_e
  lat_top: 30.23
  lat_bottom: 30.15
  lon_left: 120.19
  lon_right: 120.27
  country: CN
  priority: 1
- name: hangzhou_s_w
  lat_top: 30.23
  lat_bottom: 30.15
  lon_left: 120.03
  lon_right: 120.11
  country: CN
  priority: 1
- name: hangzhou_w
  lat_top: 30.31
  lat_bottom: 30.23
  lon_left: 120.03
  lon_right: 120.11
  country: CN
  priority: 1
- name: hanoi
  lat_top: 21.07
  lat_bottom: 20.99
  lon_left: 105.81
  lon_right: 105.89
  country: VN
  priority: 1
- name: hanoi_e
  lat_top: 21.07
  lat_bottom: 20.99
  lon_left: 105.89
  lon_right: 105.97
  country: VN
  priority: 1
- name: hanoi_n
  lat_top: 21.15
  lat_bottom: 21.07
  lon_left: 105.81
  lon_right: 105.89
  country: VN
  priority: 1
- name: hanoi_n_e
  lat_top: 21.15
  lat_bottom: 21.07
  lon_left: 105.89
  lon_right: 105.97
  country: VN
  priority: 1
- name: hanoi_n_w
  lat_top: 21.15
  lat_bottom: 21.07
  lon_left: 105.73
  lon_right: 105.81
  country: VN
  priority: 1
- name: hanoi_s
  lat_top: 20.99
  lat_bottom: 20.91
  lon_left: 105.81
  lon_right: 105.89
  country: VN
  priority: 1
- name: hanoi_s_e
  lat_top: 20.99
  lat_bottom: 20.91
  lon_left: 105.89
  lon_right: 105.97
  country: VN
  priority: 1
- name: hanoi_s_w
  lat_top: 20.99
  lat_bottom: 20.91
  lon_left: 105.73
  lon_right: 105.81
  country: VN
  priority: 1
- name: hanoi_w
  lat_top: 21.07
  lat_bottom: 20.99
  lon_left: 105.73
  lon_right: 105.81
  country: VN
  priority: 1
- name: ho_chi_minh
  lat_top: 10.86
  lat_bottom: 10.78
  lon_left: 106.59
  lon_right: 106.67
  country: VN
  priority: 1
- name: ho_chi_minh_e
  lat_top: 10.86
  lat_bottom: 10.78
  lon_left: 106.67
  lon_right: 106.75
  country: VN
  priority: 1
- name: ho_chi_minh_n
  lat_top: 10.94
  lat_bottom: 10.86
  lon_left: 106.59
  lon_right: 106.67
  country: VN
  priority: 1
- name: ho_chi_minh_n_e
  lat_top: 10.94
  lat_bottom: 10.86
  lon_left: 106.67
  lon_right: 106.75
  country: VN
  priority: 1
- name: ho_chi_minh_n_w
  lat_top: 10.94
  lat_bottom: 10.86
  lon_left: 106.51
  lon_right: 106.59
  country: VN
  priority: 1
- name: ho_chi_minh_s
  lat_top: 10.78
  lat_bottom: 10.7
  lon_left: 106.59
  lon_right: 106.67
  country: VN
  priority: 1
- name: ho_chi_minh_s_e
  lat_top: 10.78
  lat_bottom: 10.7
  lon_left: 106.67
  lon_right: 106.75
  country: VN
  priority: 1
- name: ho_chi_minh_s_w
  lat_top: 10.78
  lat_bottom: 10.7
  lon_left: 106.51
  lon_right: 106.59
  country: VN
  priority: 1
- name: ho_chi_minh_w
  lat_top: 10.86
  lat_bottom: 10.78
  lon_left: 106.51
  lon_right: 106.59
  country: VN
  priority: 1
- name: hong_kong
  lat_top: 22.36
  lat_bottom: 22.28
  lon_left: 114.13
  lon_right: 114.21
  country: HK
  priority: 1
- name: hong_kong_e
  lat_top: 22.36
  lat_bottom: 22.28
  lon_left: 114.21
  lon_right: 114.29
  country: HK
  priority: 1
- name: hong_kong_n
  lat_top: 22.44
  lat_bottom: 22.36
  lon_left: 114.13
  lon_right: 114.21
  country: HK
  priority: 1
- name: hong_kong_n_e
  lat_top: 22.44
  lat_bottom: 22.36
  lon_left: 114.21
  lon_right: 114.29
  country: HK
  priority: 1
- name: hong_kong_n_w
  lat_top: 22.44
  lat_bottom: 22.36
  lon_left: 114.05
  lon_right: 114.13
  country: HK
  priority: 1
- name: hong_kong_s
  lat_top: 22.28
  lat_bottom: 22.2
  lon_left: 114.13
  lon_right: 114.21
  country: HK
  priority: 1
- name: hong_kong_s_e
  lat_top: 22.28
  lat_bottom: 22.2
  lon_left: 114.21
  lon_right: 114.29
  country: HK
  priority: 1
- name: hong_kong_s_w
  lat_top: 22.28
  lat_bottom: 22.2
  lon_left: 114.05
  lon_right: 114.13
  country: HK
  priority: 1
- name: hong_kong_w
  lat_top: 22.36
  lat_bottom: 22.28
  lon_left: 114.05
  lon_right: 114.13
  country: HK
  priority: 1
- name: hyderabad
  lat_top: 17.43
  lat_bottom: 17.35
  lon_left: 78.45
  lon_right: 78.53
  country: IN
  priority: 1
- name: hyderabad_e
  lat_top: 17.43
  lat_bottom: 17.35
  lon_left: 78.53
  lon_right: 78.61
  country: IN
  priority: 1
- name: hyderabad_n
  lat_top: 17.51
  lat_bottom: 17.43
  lon_left: 78.45
  lon_right: 78.53
  country: IN
  priority: 1
- name: hyderabad_n_e
  lat_top: 17.51
  lat_bottom: 17.43
  lon_left: 78.53
  lon_right: 78.61
  country: IN
  priority: 1
- name: hyderabad_n_w
  lat_top: 17.51
  lat_bottom: 17.43
  lon_left: 78.37
  lon_right: 78.45
  country: IN
  priority: 1
- name: hyderabad_s
  lat_top: 17.35
  lat_bottom: 17.27
  lon_left: 78.45
  lon_right: 78.53
  country: IN
  priority: 1
- name: hyderabad_s_e
  lat_top: 17.35
  lat_bottom: 17.27
  lon_left: 78.53
  lon_right: 78.61
  country: IN
  priority: 1
- name: hyderabad_s_w
  lat_top: 17.35
  lat_bottom: 17.27
  lon_left: 78.37
  lon_right: 78.45
  country: IN
  priority: 1
- name: hyderabad_w
  lat_top: 17.43
  lat_bottom: 17.35
  lon_left: 78.37
  lon_right: 78.45
  country: IN
  priority: 1
- name: incheon
  lat_top: 37.5
  lat_bottom: 37.42
  lon_left: 126.67
  lon_right: 126.75
  country: KR
  priority: 1
- name: incheon_e
  lat_top: 37.5
  lat_bottom: 37.42
  lon_left: 126.75
  lon_right: 126.83
  country: KR
  priority: 1
- name: incheon_n
  lat_top: 37.58
  lat_bottom: 37.5
  lon_left: 126.67
  lon_right: 126.75
  country: KR
  priority: 1
- name: incheon_n_e
  lat_top: 37.58
  lat_bottom: 37.5
  lon_left: 126.75
  lon_right: 126.83
  country: KR
  priority: 1
- name: incheon_n_w
  lat_top: 37.58
  lat_bottom: 37.5
  lon_left: 126.59
  lon_right: 126.67
  country: KR
  priority: 1
- name: incheon_s
  lat_top: 37.42
  lat_bottom: 37.34
  lon_left: 126.67
  lon_right: 126.75
  country: KR
  priority: 1
- name: incheon_s_e
  lat_top: 37.42
  lat_bottom: 37.34
  lon_left: 126.75
  lon_right: 126.83
  country: KR
  priority: 1
- name: incheon_s_w
  lat_top: 37.42
  lat_bottom: 37.34
  lon_left: 126.59
  lon_right: 126.67
  country: KR
  priority: 1
- name: incheon_w
  lat_top: 37.5
  lat_bottom: 37.42
  lon_left: 126.59
  lon_right: 126.67
  country: KR
  priority: 1
- name: islamabad
  lat_top: 33.72
  lat_bottom: 33.64
  lon_left: 73.01
  lon_right: 73.09
  country: PK
  priority: 1
- name: islamabad_e
  lat_top: 33.72
  lat_bottom: 33.64
  lon_left: 73.09
  lon_right: 73.17
  country: PK
  priority: 1
- name: islamabad_n
  lat_top: 33.8
  lat_bottom: 33.72
  lon_left: 73.01
  lon_right: 73.09
  country: PK
  priority: 1
- name: islamabad_n_e
  lat_top: 33.8
  lat_bottom: 33.72
  lon_left: 73.09
  lon_right: 73.17
  country: PK
  priority: 1
- name: islamabad_n_w
  lat_top: 33.8
  lat_bottom: 33.72
  lon_left: 72.93
  lon_right: 73.01
  country: PK
  priority: 1
- name: islamabad_s
  lat_top: 33.64
  lat_bottom: 33.56
  lon_left: 73.01
  lon_right: 73.09
  country: PK
  priority: 1
- name: islamabad_s_e
  lat_top: 33.64
  lat_bottom: 33.56
  lon_left: 73.09
  lon_right: 73.17
  country: PK
  priority: 1
- name: islamabad_s_w
  lat_top: 33.64
  lat_bottom: 33.56
  lon_left: 72.93
  lon_right: 73.01
  country: PK
  priority: 1
- name: islamabad_w
  lat_top: 33.72
  lat_bottom: 33.64
  lon_left: 72.93
  lon_right: 73.01
  country: PK
  priority: 1
- name: istanbul
  lat_top: 41.05
  lat_bottom: 40.97
  lon_left: 28.94
  lon_right: 29.02
  country: TR
  priority: 1
- name: istanbul_e
  lat_top: 41.05
  lat_bottom: 40.97
  lon_left: 29.02
  lon_right: 29.1
  country: TR
  priority: 1
- name: istanbul_n
  lat_top: 41.13
  lat_bottom: 41.05
  lon_left: 28.94
  lon_right: 29.02
  country: TR
  priority: 1
- name: istanbul_n_e
  lat_top: 41.13
  lat_bottom: 41.05
  lon_left: 29.02
  lon_right: 29.1
  country: TR
  priority: 1
- name: istanbul_n_w
  lat_top: 41.13
  lat_bottom: 41.05
  lon_left: 28.86
  lon_right: 28.94
  country: TR
  priority: 1
- name: istanbul_s
  lat_top: 40.97
  lat_bottom: 40.89
  lon_left: 28.94
  lon_right: 29.02
  country: TR
  priority: 1
- name: istanbul_s_e
  lat_top: 40.97
  lat_bottom: 40.89
  lon_left: 29.02
  lon_right: 29.1
  country: TR
  priority: 1
- name: istanbul_s_w
  lat_top: 40.97
  lat_bottom: 40.89
  lon_left: 28.86
  lon_right: 28.94
  country: TR
  priority: 1
- name: istanbul_w
  lat_top: 41.05
  lat_bottom: 40.97
  lon_left: 28.86
  lon_right: 28.94
  country: TR
  priority: 1
- name: izmir
  lat_top: 38.46
  lat_bottom: 38.38
  lon_left: 27.1
  lon_right: 27.18
  country: TR
  priority: 1
- name: izmir_e
  lat_top: 38.46
  lat_bottom: 38.38
  lon_left: 27.18
  lon_right: 27.26
  country: TR
  priority: 1
- name: izmir_n
  lat_top: 38.54
  lat_bottom: 38.46
  lon_left: 27.1
  lon_right: 27.18
  country: TR
  priority: 1
- name: izmir_n_e
  lat_top: 38.54
  lat_bottom: 38.46
  lon_left: 27.18
  lon_right: 27.26
  country: TR
  priority: 1
- name: izmir_n_w
  lat_top: 38.54
  lat_bottom: 38.46
  lon_left: 27.02
  lon_right: 27.1
  country: TR
  priority: 1
- name: izmir_s
  lat_top: 38.38
  lat_bottom: 38.3
  lon_left: 27.1
  lon_right: 27.18
  country: TR
  priority: 1
- name: izmir_s_e
  lat_top: 38.38
  lat_bottom: 38.3
  lon_left: 27.18
  lon_right: 27.26
  country: TR
  priority: 1
- name: izmir_s_w
  lat_top: 38.38
  lat_bottom: 38.3
  lon_left: 27.02
  lon_right: 27.1
  country: TR
  priority: 1
- name: izmir_w
  lat_top: 38.46
  lat_bottom: 38.38
  lon_left: 27.02
  lon_right: 27.1
  country: TR
  priority: 1
- name: jaipur
  lat_top: 26.95
  lat_bottom: 26.87
  lon_left: 75.75
  lon_right: 75.83
  country: IN
  priority: 1
- name: jaipur_e
  lat_top: 26.95
  lat_bottom: 26.87
  lon_left: 75.83
  lon_right: 75.91
  country: IN
  priority: 1
- name: jaipur_n
  lat_top: 27.03
  lat_bottom: 26.95
  lon_left: 75.75
  lon_right: 75.83
  country: IN
  priority: 1
- name: jaipur_n_e
  lat_top: 27.03
  lat_bottom: 26.95
  lon_left: 75.83
  lon_right: 75.91
  country: IN
  priority: 1
- name: jaipur_n_w
  lat_top: 27.03
  lat_bottom: 26.95
  lon_left: 75.67
  lon_right: 75.75
  country: IN
  priority: 1
- name: jaipur_s
  lat_top: 26.87
  lat_bottom: 26.79
  lon_left: 75.75
  lon_right: 75.83
  country: IN
  priority: 1
- name: jaipur_s_e
  lat_top: 26.87
  lat_bottom: 26.79
  lon_left: 75.83
  lon_right: 75.91
  country: IN
  priority: 1
- name: jaipur_s_w
  lat_top: 26.87
  lat_bottom: 26.79
  lon_left: 75.67
  lon_right: 75.75
  country: IN
  priority: 1
- name: jaipur_w
  lat_top: 26.95
  lat_bottom: 26.87
  lon_left: 75.67
  lon_right: 75.75
  country: IN
  priority: 1
- name: jakarta
  lat_top: -6.17
  lat_bottom: -6.25
  lon_left: 106.81
  lon_right: 106.89
  country: ID
  priority: 1
- name: jakarta_e
  lat_top: -6.17
  lat_bottom: -6.25
  lon_left: 106.89
  lon_right: 106.97
  country: ID
  priority: 1
- name: jakarta_n
  lat_top: -6.09
  lat_bottom: -6.17
  lon_left: 106.81
  lon_right: 106.89
  country: ID
  priority: 1
- name: jakarta_n_e
  lat_top: -6.09
  lat_bottom: -6.17
  lon_left: 106.89
  lon_right: 106.97
  country: ID
  priority: 1
- name: jakarta_n_w
  lat_top: -6.09
  lat_bottom: -6.17
  lon_left: 106.73
  lon_right: 106.81
  country: ID
  priority: 1
- name: jakarta_s
  lat_top: -6.25
  lat_bottom: -6.33
  lon_left: 106.81
  lon_right: 106.89
  country: ID
  priority: 1
- name: jakarta_s_e
  lat_top: -6.25
  lat_bottom: -6.33
  lon_left: 106.89
  lon_right: 106.97
  country: ID
  priority: 1
- name: jakarta_s_w
  lat_top: -6.25
  lat_bottom: -6.33
  lon_left: 106.73
  lon_right: 106.81
  country: ID
  priority: 1
- name: jakarta_w
  lat_top: -6.17
  lat_bottom: -6.25
  lon_left: 106.73
  lon_right: 106.81
  country: ID
  priority: 1
- name: jeddah
  lat_top: 21.58
  lat_bottom: 21.5
  lon_left: 39.13
  lon_right: 39.21
  country: SA
  priority: 1
- name: jeddah_e
  lat_top: 21.58
  lat_bottom: 21.5
  lon_left: 39.21
  lon_right: 39.29
  country: SA
  priority: 1
- name: jeddah_n
  lat_top: 21.66
  lat_bottom: 21.58
  lon_left: 39.13
  lon_right: 39.21
  country: SA
  priority: 1
- name: jeddah_n_e
  lat_top: 21.66
  lat_bottom: 21.58
  lon_left: 39.21
  lon_right: 39.29
  country: SA
  priority: 1
- name: jeddah_n_w
  lat_top: 21.66
  lat_bottom: 21.58
  lon_left: 39.05
  lon_right: 39.13
  country: SA
  priority: 1
- name: jeddah_s
  lat_top: 21.5
  lat_bottom: 21.42
  lon_left: 39.13
  lon_right: 39.21
  country: SA
  priority: 1
- name: jeddah_s_e
  lat_top: 21.5
  lat_bottom: 21.42
  lon_left: 39.21
  lon_right: 39.29
  country: SA
  priority: 1
- name: jeddah_s_w
  lat_top: 21.5
  lat_bottom: 21.42
  lon_left: 39.05
  lon_right: 39.13
  country: SA
  priority: 1
- name: jeddah_w
  lat_top: 21.58
  lat_bottom: 21.5
  lon_left: 39.05
  lon_right: 39.13
  country: SA
  priority: 1
- name: jerusalem
  lat_top: 31.81
  lat_bottom: 31.73
  lon_left: 35.19
  lon_right: 35.27
  country: IL
  priority: 1
- name: jerusalem_e
  lat_top: 31.81
  lat_bottom: 31.73
  lon_left: 35.27
  lon_right: 35.35
  country: IL
  priority: 1
- name: jerusalem_n
  lat_top: 31.89
  lat_bottom: 31.81
  lon_left: 35.19
  lon_right: 35.27
  country: IL
  priority: 1
- name: jerusalem_n_e
  lat_top: 31.89
  lat_bottom: 31.81
  lon_left: 35.27
  lon_right: 35.35
  country: IL
  priority: 1
- name: jerusalem_n_w
  lat_top: 31.89
  lat_bottom: 31.81
  lon_left: 35.11
  lon_right: 35.19
  country: IL
  priority: 1
- name: jerusalem_s
  lat_top: 31.73
  lat_bottom: 31.65
  lon_left: 35.19
  lon_right: 35.27
  country: IL
  priority: 1
- name: jerusalem_s_e
  lat_top: 31.73
  lat_bottom: 31.65
  lon_left: 35.27
  lon_right: 35.35
  country: IL
  priority: 1
- name: jerusalem_s_w
  lat_top: 31.73
  lat_bottom: 31.65
  lon_left: 35.11
  lon_right: 35.19
  country: IL
  priority: 1
- name: jerusalem_w
  lat_top: 31.81
  lat_bottom: 31.73
  lon_left: 35.11
  lon_right: 35.19
  country: IL
  priority: 1
- name: johor_bahru
  lat_top: 1.53
  lat_bottom: 1.45
  lon_left: 103.7
  lon_right: 103.78
  country: MY
  priority: 1
- name: johor_bahru_e
  lat_top: 1.53
  lat_bottom: 1.45
  lon_left: 103.78
  lon_right: 103.86
  country: MY
  priority: 1
- name: johor_bahru_n
  lat_top: 1.61
  lat_bottom: 1.53
  lon_left: 103.7
  lon_right: 103.78
  country: MY
  priority: 1
- name: johor_bahru_n_e
  lat_top: 1.61
  lat_bottom: 1.53
  lon_left: 103.78
  lon_right: 103.86
  country: MY
  priority: 1
- name: johor_bahru_n_w
  lat_top: 1.61
  lat_bottom: 1.53
  lon_left: 103.62
  lon_right: 103.7
  country: MY
  priority: 1
- name: johor_bahru_s
  lat_top: 1.45
  lat_bottom: 1.37
  lon_left: 103.7
  lon_right: 103.78
  country: MY
  priority: 1
- name: johor_bahru_s_e
  lat_top: 1.45
  lat_bottom: 1.37
  lon_left: 103.78
  lon_right: 103.86
  country: MY
  priority: 1
- name: johor_bahru_s_w
  lat_top: 1.45
  lat_bottom: 1.37
  lon_left: 103.62
  lon_right: 103.7
  country: MY
  priority: 1
- name: johor_bahru_w
  lat_top: 1.53
  lat_bottom: 1.45
  lon_left: 103.62
  lon_right: 103.7
  country: MY
  priority: 1
- name: karachi
  lat_top: 24.9
  lat_bottom: 24.82
  lon_left: 66.97
  lon_right: 67.05
  country: PK
  priority: 1
- name: karachi_e
  lat_top: 24.9
  lat_bottom: 24.82
  lon_left: 67.05
  lon_right: 67.13
  country: PK
  priority: 1
- name: karachi_n
  lat_top: 24.98
  lat_bottom: 24.9
  lon_left: 66.97
  lon_right: 67.05
  country: PK
  priority: 1
- name: karachi_n_e
  lat_top: 24.98
  lat_bottom: 24.9
  lon_left: 67.05
  lon_right: 67.13
  country: PK
  priority: 1
- name: karachi_n_w
  lat_top: 24.98
  lat_bottom: 24.9
  lon_left: 66.89
  lon_right: 66.97
  country: PK
  priority: 1
- name: karachi_s
  lat_top: 24.82
  lat_bottom: 24.74
  lon_left: 66.97
  lon_right: 67.05
  country: PK
  priority: 1
- name: karachi_s_e
  lat_top: 24.82
  lat_bottom: 24.74
  lon_left: 67.05
  lon_right: 67.13
  country: PK
  priority: 1
- name: karachi_s_w
  lat_top: 24.82
  lat_bottom: 24.74
  lon_left: 66.89
  lon_right: 66.97
  country: PK
  priority: 1
- name: karachi_w
  lat_top: 24.9
  lat_bottom: 24.82
  lon_left: 66.89
  lon_right: 66.97
  country: PK
  priority: 1
- name: kobe
  lat_top: 34.73
  lat_bottom: 34.65
  lon_left: 135.16
  lon_right: 135.24
  country: JP
  priority: 1
- name: kobe_e
  lat_top: 34.73
  lat_bottom: 34.65
  lon_left: 135.24
  lon_right: 135.32
  country: JP
  priority: 1
- name: kobe_n
  lat_top: 34.81
  lat_bottom: 34.73
  lon_left: 135.16
  lon_right: 135.24
  country: JP
  priority: 1
- name: kobe_n_e
  lat_top: 34.81
  lat_bottom: 34.73
  lon_left: 135.24
  lon_right: 135.32
  country: JP
  priority: 1
- name: kobe_n_w
  lat_top: 34.81
  lat_bottom: 34.73
  lon_left: 135.08
  lon_right: 135.16
  country: JP
  priority: 1
- name: kobe_s
  lat_top: 34.65
  lat_bottom: 34.57
  lon_left: 135.16
  lon_right: 135.24
  country: JP
  priority: 1
- name: kobe_s_e
  lat_top: 34.65
  lat_bottom: 34.57
  lon_left: 135.24
  lon_right: 135.32
  country: JP
  priority: 1
- name: kobe_s_w
  lat_top: 34.65
  lat_bottom: 34.57
  lon_left: 135.08
  lon_right: 135.16
  country: JP
  priority: 1
- name: kobe_w
  lat_top: 34.73
  lat_bottom: 34.65
  lon_left: 135.08
  lon_right: 135.16
  country: JP
  priority: 1
- name: kolkata
  lat_top: 22.61
  lat_bottom: 22.53
  lon_left: 88.32
  lon_right: 88.4
  country: IN
  priority: 1
- name: kolkata_e
  lat_top: 22.61
  lat_bottom: 22.53
  lon_left: 88.4
  lon_right: 88.48
  country: IN
  priority: 1
- name: kolkata_n
  lat_top: 22.69
  lat_bottom: 22.61
  lon_left: 88.32
  lon_right: 88.4
  country: IN
  priority: 1
- name: kolkata_n_e
  lat_top: 22.69
  lat_bottom: 22.61
  lon_left: 88.4
  lon_right: 88.48
  country: IN
  priority: 1
- name: kolkata_n_w
  lat_top: 22.69
  lat_bottom: 22.61
  lon_left: 88.24
  lon_right: 88.32
  country: IN
  priority: 1
- name: kolkata_s
  lat_top: 22.53
  lat_bottom: 22.45
  lon_left: 88.32
  lon_right: 88.4
  country: IN
  priority: 1
- name: kolkata_s_e
  lat_top: 22.53
  lat_bottom: 22.45
  lon_left: 88.4
  lon_right: 88.48
  country: IN
  priority: 1
- name: kolkata_s_w
  lat_top: 22.53
  lat_bottom: 22.45
  lon_left: 88.24
  lon_right: 88.32
  country: IN
  priority: 1
- name: kolkata_w
  lat_top: 22.61
  lat_bottom: 22.53
  lon_left: 88.24
  lon_right: 88.32
  country: IN
  priority: 1
- name: kuala_lumpur
  lat_top: 3.18
  lat_bottom: 3.1
  lon_left: 101.65
  lon_right: 101.73
  country: MY
  priority: 1
- name: kuala_lumpur_e
  lat_top: 3.18
  lat_bottom: 3.1
  lon_left: 101.73
  lon_right: 101.81
  country: MY
  priority: 1
- name: kuala_lumpur_n
  lat_top: 3.26
  lat_bottom: 3.18
  lon_left: 101.65
  lon_right: 101.73
  country: MY
  priority: 1
- name: kuala_lumpur_n_e
  lat_top: 3.26
  lat_bottom: 3.18
  lon_left: 101.73
  lon_right: 101.81
  country: MY
  priority: 1
- name: kuala_lumpur_n_w
  lat_top: 3.26
  lat_bottom: 3.18
  lon_left: 101.57
  lon_right: 101.65
  country: MY
  priority: 1
- name: kuala_lumpur_s
  lat_top: 3.1
  lat_bottom: 3.02
  lon_left: 101.65
  lon_right: 101.73
  country: MY
  priority: 1
- name: kuala_lumpur_s_e
  lat_top: 3.1
  lat_bottom: 3.02
  lon_left: 101.73
  lon_right: 101.81
  country: MY
  priority: 1
- name: kuala_lumpur_s_w
  lat_top: 3.1
  lat_bottom: 3.02
  lon_left: 101.57
  lon_right: 101.65
  country: MY
  priority: 1
- name: kuala_lumpur_w
  lat_top: 3.18
  lat_bottom: 3.1
  lon_left: 101.57
  lon_right: 101.65
  country: MY
  priority: 1
- name: kuwait_city
  lat_top: 29.42
  lat_bottom: 29.34
  lon_left: 47.95
  lon_right: 48.03
  country: KW
  priority: 1
- name: kuwait_city_e
  lat_top: 29.42
  lat_bottom: 29.34
  lon_left: 48.03
  lon_right: 48.11
  country: KW
  priority: 1
- name: kuwait_city_n
  lat_top: 29.5
  lat_bottom: 29.42
  lon_left: 47.95
  lon_right: 48.03
  country: KW
  priority: 1
- name: kuwait_city_n_e
  lat_top: 29.5
  lat_bottom: 29.42
  lon_left: 48.03
  lon_right: 48.11
  country: KW
  priority: 1
- name: kuwait_city_n_w
  lat_top: 29.5
  lat_bottom: 29.42
  lon_left: 47.87
  lon_right: 47.95
  country: KW
  priority: 1
- name: kuwait_city_s
  lat_top: 29.34
  lat_bottom: 29.26
  lon_left: 47.95
  lon_right: 48.03
  country: KW
  priority: 1
- name: kuwait_city_s_e
  lat_top: 29.34
  lat_bottom: 29.26
  lon_left: 48.03
  lon_right: 48.11
  country: KW
  priority: 1
- name: kuwait_city_s_w
  lat_top: 29.34
  lat_bottom: 29.26
  lon_left: 47.87
  lon_right: 47.95
  country: KW
  priority: 1
- name: kuwait_city_w
  lat_top: 29.42
  lat_bottom: 29.34
  lon_left: 47.87
  lon_right: 47.95
  country: KW
  priority: 1
- name: kyoto
  lat_top: 35.05
  lat_bottom: 34.97
  lon_left: 135.73
  lon_right: 135.81
  country: JP
  priority: 1
- name: kyoto_e
  lat_top: 35.05
  lat_bottom: 34.97
  lon_left: 135.81
  lon_right: 135.89
  country: JP
  priority: 1
- name: kyoto_n
  lat_top: 35.13
  lat_bottom: 35.05
  lon_left: 135.73
  lon_right: 135.81
  country: JP
  priority: 1
- name: kyoto_n_e
  lat_top: 35.13
  lat_bottom: 35.05
  lon_left: 135.81
  lon_right: 135.89
  country: JP
  priority: 1
- name: kyoto_n_w
  lat_top: 35.13
  lat_bottom: 35.05
  lon_left: 135.65
  lon_right: 135.73
  country: JP
  priority: 1
- name: kyoto_s
  lat_top: 34.97
  lat_bottom: 34.89
  lon_left: 135.73
  lon_right: 135.81
  country: JP
  priority: 1
- name: kyoto_s_e
  lat_top: 34.97
  lat_bottom: 34.89
  lon_left: 135.81
  lon_right: 135.89
  country: JP
  priority: 1
- name: kyoto_s_w
  lat_top: 34.97
  lat_bottom: 34.89
  lon_left: 135.65
  lon_right: 135.73
  country: JP
  priority: 1
- name: kyoto_w
  lat_top: 35.05
  lat_bottom: 34.97
  lon_left: 135.65
  lon_right: 135.73
  country: JP
  priority: 1
- name: lahore
  lat_top: 31.59
  lat_bottom: 31.51
  lon_left: 74.3
  lon_right: 74.38
  country: PK
  priority: 1
- name: lahore_e
  lat_top: 31.59
  lat_bottom: 31.51
  lon_left: 74.38
  lon_right: 74.46
  country: PK
  priority: 1
- name: lahore_n
  lat_top: 31.67
  lat_bottom: 31.59
  lon_left: 74.3
  lon_right: 74.38
  country: PK
  priority: 1
- name: lahore_n_e
  lat_top: 31.67
  lat_bottom: 31.59
  lon_left: 74.38
  lon_right: 74.46
  country: PK
  priority: 1
- name: lahore_n_w
  lat_top: 31.67
  lat_bottom: 31.59
  lon_left: 74.22
  lon_right: 74.3
  country: PK
  priority: 1
- name: lahore_s
  lat_top: 31.51
  lat_bottom: 31.43
  lon_left: 74.3
  lon_right: 74.38
  country: PK
  priority: 1
- name: lahore_s_e
  lat_top: 31.51
  lat_bottom: 31.43
  lon_left: 74.38
  lon_right: 74.46
  country: PK
  priority: 1
- name: lahore_s_w
  lat_top: 31.51
  lat_bottom: 31.43
  lon_left: 74.22
  lon_right: 74.3
  country: PK
  priority: 1
- name: lahore_w
  lat_top: 31.59
  lat_bottom: 31.51
  lon_left: 74.22
  lon_right: 74.3
  country: PK
  priority: 1
- name: manama
  lat_top: 26.27
  lat_bottom: 26.19
  lon_left: 50.55
  lon_right: 50.63
  country: BH
  priority: 1
- name: manama_e
  lat_top: 26.27
  lat_bottom: 26.19
  lon_left: 50.63
  lon_right: 50.71
  country: BH
  priority: 1
- name: manama_n
  lat_top: 26.35
  lat_bottom: 26.27
  lon_left: 50.55
  lon_right: 50.63
  country: BH
  priority: 1
- name: manama_n_e
  lat_top: 26.35
  lat_bottom: 26.27
  lon_left: 50.63
  lon_right: 50.71
  country: BH
  priority: 1
- name: manama_n_w
  lat_top: 26.35
  lat_bottom: 26.27
  lon_left: 50.47
  lon_right: 50.55
  country: BH
  priority: 1
- name: manama_s
  lat_top: 26.19
  lat_bottom: 26.11
  lon_left: 50.55
  lon_right: 50.63
  country: BH
  priority: 1
- name: manama_s_e
  lat_top: 26.19
  lat_bottom: 26.11
  lon_left: 50.63
  lon_right: 50.71
  country: BH
  priority: 1
- name: manama_s_w
  lat_top: 26.19
  lat_bottom: 26.11
  lon_left: 50.47
  lon_right: 50.55
  country: BH
  priority: 1
- name: manama_w
  lat_top: 26.27
  lat_bottom: 26.19
  lon_left: 50.47
  lon_right: 50.55
  country: BH
  priority: 1
- name: manila
  lat_top: 14.64
  lat_bottom: 14.56
  lon_left: 120.94
  lon_right: 121.02
  country: PH
  priority: 1
- name: manila_e
  lat_top: 14.64
  lat_bottom: 14.56
  lon_left: 121.02
  lon_right: 121.1
  country: PH
  priority: 1
- name: manila_n
  lat_top: 14.72
  lat_bottom: 14.64
  lon_left: 120.94
  lon_right: 121.02
  country: PH
  priority: 1
- name: manila_n_e
  lat_top: 14.72
  lat_bottom: 14.64
  lon_left: 121.02
  lon_right: 121.1
  country: PH
  priority: 1
- name: manila_n_w
  lat_top: 14.72
  lat_bottom: 14.64
  lon_left: 120.86
  lon_right: 120.94
  country: PH
  priority: 1
- name: manila_s
  lat_top: 14.56
  lat_bottom: 14.48
  lon_left: 120.94
  lon_right: 121.02
  country: PH
  priority: 1
- name: manila_s_e
  lat_top: 14.56
  lat_bottom: 14.48
  lon_left: 121.02
  lon_right: 121.1
  country: PH
  priority: 1
- name: manila_s_w
  lat_top: 14.56
  lat_bottom: 14.48
  lon_left: 120.86
  lon_right: 120.94
  country: PH
  priority: 1
- name: manila_w
  lat_top: 14.64
  lat_bottom: 14.56
  lon_left: 120.86
  lon_right: 120.94
  country: PH
  priority: 1
- name: mumbai
  lat_top: 19.12
  lat_bottom: 19.04
  lon_left: 72.84
  lon_right: 72.92
  country: IN
  priority: 1
- name: mumbai_e
  lat_top: 19.12
  lat_bottom: 19.04
  lon_left: 72.92
  lon_right: 73.0
  country: IN
  priority: 1
- name: mumbai_n
  lat_top: 19.2
  lat_bottom: 19.12
  lon_left: 72.84
  lon_right: 72.92
  country: IN
  priority: 1
- name: mumbai_n_e
  lat_top: 19.2
  lat_bottom: 19.12
  lon_left: 72.92
  lon_right: 73.0
  country: IN
  priority: 1
- name: mumbai_n_w
  lat_top: 19.2
  lat_bottom: 19.12
  lon_left: 72.76
  lon_right: 72.84
  country: IN
  priority: 1
- name: mumbai_s
  lat_top: 19.04
  lat_bottom: 18.96
  lon_left: 72.84
  lon_right: 72.92
  country: IN
  priority: 1
- name: mumbai_s_e
  lat_top: 19.04
  lat_bottom: 18.96
  lon_left: 72.92
  lon_right: 73.0
  country: IN
  priority: 1
- name: mumbai_s_w
  lat_top: 19.04
  lat_bottom: 18.96
  lon_left: 72.76
  lon_right: 72.84
  country: IN
  priority: 1
- name: mumbai_w
  lat_top: 19.12
  lat_bottom: 19.04
  lon_left: 72.76
  lon_right: 72.84
  country: IN
  priority: 1
- name: muscat
  lat_top: 23.63
  lat_bottom: 23.55
  lon_left: 58.37
  lon_right: 58.45
  country: OM
  priority: 1
- name: muscat_e
  lat_top: 23.63
  lat_bottom: 23.55
  lon_left: 58.45
  lon_right: 58.53
  country: OM
  priority: 1
- name: muscat_n
  lat_top: 23.71
  lat_bottom: 23.63
  lon_left: 58.37
  lon_right: 58.45
  country: OM
  priority: 1
- name: muscat_n_e
  lat_top: 23.71
  lat_bottom: 23.63
  lon_left: 58.45
  lon_right: 58.53
  country: OM
  priority: 1
- name: muscat_n_w
  lat_top: 23.71
  lat_bottom: 23.63
  lon_left: 58.29
  lon_right: 58.37
  country: OM
  priority: 1
- name: muscat_s
  lat_top: 23.55
  lat_bottom: 23.47
  lon_left: 58.37
  lon_right: 58.45
  country: OM
  priority: 1
- name: muscat_s_e
  lat_top: 23.55
  lat_bottom: 23.47
  lon_left: 58.45
  lon_right: 58.53
  country: OM
  priority: 1
- name: muscat_s_w
  lat_top: 23.55
  lat_bottom: 23.47
  lon_left: 58.29
  lon_right: 58.37
  country: OM
  priority: 1
- name: muscat_w
  lat_top: 23.63
  lat_bottom: 23.55
  lon_left: 58.29
  lon_right: 58.37
  country: OM
  priority: 1
- name: nagoya
  lat_top: 35.22
  lat_bottom: 35.14
  lon_left: 136.87
  lon_right: 136.95
  country: JP
  priority: 1
- name: nagoya_e
  lat_top: 35.22
  lat_bottom: 35.14
  lon_left: 136.95
  lon_right: 137.03
  country: JP
  priority: 1
- name: nagoya_n
  lat_top: 35.3
  lat_bottom: 35.22
  lon_left: 136.87
  lon_right: 136.95
  country: JP
  priority: 1
- name: nagoya_n_e
  lat_top: 35.3
  lat_bottom: 35.22
  lon_left: 136.95
  lon_right: 137.03
  country: JP
  priority: 1
- name: nagoya_n_w
  lat_top: 35.3
  lat_bottom: 35.22
  lon_left: 136.79
  lon_right: 136.87
  country: JP
  priority: 1
- name: nagoya_s
  lat_top: 35.14
  lat_bottom: 35.06
  lon_left: 136.87
  lon_right: 136.95
  country: JP
  priority: 1
- name: nagoya_s_e
  lat_top: 35.14
  lat_bottom: 35.06
  lon_left: 136.95
  lon_right: 137.03
  country: JP
  priority: 1
- name: nagoya_s_w
  lat_top: 35.14
  lat_bottom: 35.06
  lon_left: 136.79
  lon_right: 136.87
  country: JP
  priority: 1
- name: nagoya_w
  lat_top: 35.22
  lat_bottom: 35.14
  lon_left: 136.79
  lon_right: 136.87
  country: JP
  priority: 1
- name: nanjing
  lat_top: 32.1
  lat_bottom: 32.02
  lon_left: 118.76
  lon_right: 118.84
  country: CN
  priority: 1
- name: nanjing_e
  lat_top: 32.1
  lat_bottom: 32.02
  lon_left: 118.84
  lon_right: 118.92
  country: CN
  priority: 1
- name: nanjing_n
  lat_top: 32.18
  lat_bottom: 32.1
  lon_left: 118.76
  lon_right: 118.84
  country: CN
  priority: 1
- name: nanjing_n_e
  lat_top: 32.18
  lat_bottom: 32.1
  lon_left: 118.84
  lon_right: 118.92
  country: CN
  priority: 1
- name: nanjing_n_w
  lat_top: 32.18
  lat_bottom: 32.1
  lon_left: 118.68
  lon_right: 118.76
  country: CN
  priority: 1
- name: nanjing_s
  lat_top: 32.02
  lat_bottom: 31.94
  lon_left: 118.76
  lon_right: 118.84
  country: CN
  priority: 1
- name: nanjing_s_e
  lat_top: 32.02
  lat_bottom: 31.94
  lon_left: 118.84
  lon_right: 118.92
  country: CN
  priority: 1
- name: nanjing_s_w
  lat_top: 32.02
  lat_bottom: 31.94
  lon_left: 118.68
  lon_right: 118.76
  country: CN
  priority: 1
- name: nanjing_w
  lat_top: 32.1
  lat_bottom: 32.02
  lon_left: 118.68
  lon_right: 118.76
  country: CN
  priority: 1
- name: novosibirsk
  lat_top: 55.05
  lat_bottom: 54.97
  lon_left: 82.88
  lon_right: 82.96
  country: RU
  priority: 1
- name: novosibirsk_e
  lat_top: 55.05
  lat_bottom: 54.97
  lon_left: 82.96
  lon_right: 83.04
  country: RU
  priority: 1
- name: novosibirsk_n
  lat_top: 55.13
  lat_bottom: 55.05
  lon_left: 82.88
  lon_right: 82.96
  country: RU
  priority: 1
- name: novosibirsk_n_e
  lat_top: 55.13
  lat_bottom: 55.05
  lon_left: 82.96
  lon_right: 83.04
  country: RU
  priority: 1
- name: novosibirsk_n_w
  lat_top: 55.13
  lat_bottom: 55.05
  lon_left: 82.8
  lon_right: 82.88
  country: RU
  priority: 1
- name: novosibirsk_s
  lat_top: 54.97
  lat_bottom: 54.89
  lon_left: 82.88
  lon_right: 82.96
  country: RU
  priority: 1
- name: novosibirsk_s_e
  lat_top: 54.97
  lat_bottom: 54.89
  lon_left: 82.96
  lon_right: 83.04
  country: RU
  priority: 1
- name: novosibirsk_s_w
  lat_top: 54.97
  lat_bottom: 54.89
  lon_left: 82.8
  lon_right: 82.88
  country: RU
  priority: 1
- name: novosibirsk_w
  lat_top: 55.05
  lat_bottom: 54.97
  lon_left: 82.8
  lon_right: 82.88
  country: RU
  priority: 1
- name: osaka
  lat_top: 34.73
  lat_bottom: 34.65
  lon_left: 135.46
  lon_right: 135.54
  country: JP
  priority: 1
- name: osaka_e
  lat_top: 34.73
  lat_bottom: 34.65
  lon_left: 135.54
  lon_right: 135.62
  country: JP
  priority: 1
- name: osaka_n
  lat_top: 34.81
  lat_bottom: 34.73
  lon_left: 135.46
  lon_right: 135.54
  country: JP
  priority: 1
- name: osaka_n_e
  lat_top: 34.81
  lat_bottom: 34.73
  lon_left: 135.54
  lon_right: 135.62
  country: JP
  priority: 1
- name: osaka_n_w
  lat_top: 34.81
  lat_bottom: 34.73
  lon_left: 135.38
  lon_right: 135.46
  country: JP
  priority: 1
- name: osaka_s
  lat_top: 34.65
  lat_bottom: 34.57
  lon_left: 135.46
  lon_right: 135.54
  country: JP
  priority: 1
- name: osaka_s_e
  lat_top: 34.65
  lat_bottom: 34.57
  lon_left: 135.54
  lon_right: 135.62
  country: JP
  priority: 1
- name: osaka_s_w
  lat_top: 34.65
  lat_bottom: 34.57
  lon_left: 135.38
  lon_right: 135.46
  country: JP
  priority: 1
- name: osaka_w
  lat_top: 34.73
  lat_bottom: 34.65
  lon_left: 135.38
  lon_right: 135.46
  country: JP
  priority: 1
- name: penang
  lat_top: 5.46
  lat_bottom: 5.38
  lon_left: 100.27
  lon_right: 100.35
  country: MY
  priority: 1
- name: penang_e
  lat_top: 5.46
  lat_bottom: 5.38
  lon_left: 100.35
  lon_right: 100.43
  country: MY
  priority: 1
- name: penang_n
  lat_top: 5.54
  lat_bottom: 5.46
  lon_left: 100.27
  lon_right: 100.35
  country: MY
  priority: 1
- name: penang_n_e
  lat_top: 5.54
  lat_bottom: 5.46
  lon_left: 100.35
  lon_right: 100.43
  country: MY
  priority: 1
- name: penang_n_w
  lat_top: 5.54
  lat_bottom: 5.46
  lon_left: 100.19
  lon_right: 100.27
  country: MY
  priority: 1
- name: penang_s
  lat_top: 5.38
  lat_bottom: 5.3
  lon_left: 100.27
  lon_right: 100.35
  country: MY
  priority: 1
- name: penang_s_e
  lat_top: 5.38
  lat_bottom: 5.3
  lon_left: 100.35
  lon_right: 100.43
  country: MY
  priority: 1
- name: penang_s_w
  lat_top: 5.38
  lat_bottom: 5.3
  lon_left: 100.19
  lon_right: 100.27
  country: MY
  priority: 1
- name: penang_w
  lat_top: 5.46
  lat_bottom: 5.38
  lon_left: 100.19
  lon_right: 100.27
  country: MY
  priority: 1
- name: phuket
  lat_top: 7.93
  lat_bottom: 7.85
  lon_left: 98.36
  lon_right: 98.44
  country: TH
  priority: 1
- name: phuket_e
  lat_top: 7.93
  lat_bottom: 7.85
  lon_left: 98.44
  lon_right: 98.52
  country: TH
  priority: 1
- name: phuket_n
  lat_top: 8.01
  lat_bottom: 7.93
  lon_left: 98.36
  lon_right: 98.44
  country: TH
  priority: 1
- name: phuket_n_e
  lat_top: 8.01
  lat_bottom: 7.93
  lon_left: 98.44
  lon_right: 98.52
  country: TH
  priority: 1
- name: phuket_n_w
  lat_top: 8.01
  lat_bottom: 7.93
  lon_left: 98.28
  lon_right: 98.36
  country: TH
  priority: 1
- name: phuket_s
  lat_top: 7.85
  lat_bottom: 7.77
  lon_left: 98.36
  lon_right: 98.44
  country: TH
  priority: 1
- name: phuket_s_e
  lat_top: 7.85
  lat_bottom: 7.77
  lon_left: 98.44
  lon_right: 98.52
  country: TH
  priority: 1
- name: phuket_s_w
  lat_top: 7.85
  lat_bottom: 7.77
  lon_left: 98.28
  lon_right: 98.36
  country: TH
  priority: 1
- name: phuket_w
  lat_top: 7.93
  lat_bottom: 7.85
  lon_left: 98.28
  lon_right: 98.36
  country: TH
  priority: 1
- name: pune
  lat_top: 18.56
  lat_bottom: 18.48
  lon_left: 73.82
  lon_right: 73.9
  country: IN
  priority: 1
- name: pune_e
  lat_top: 18.56
  lat_bottom: 18.48
  lon_left: 73.9
  lon_right: 73.98
  country: IN
  priority: 1
- name: pune_n
  lat_top: 18.64
  lat_bottom: 18.56
  lon_left: 73.82
  lon_right: 73.9
  country: IN
  priority: 1
- name: pune_n_e
  lat_top: 18.64
  lat_bottom: 18.56
  lon_left: 73.9
  lon_right: 73.98
  country: IN
  priority: 1
- name: pune_n_w
  lat_top: 18.64
  lat_bottom: 18.56
  lon_left: 73.74
  lon_right: 73.82
  country: IN
  priority: 1
- name: pune_s
  lat_top: 18.48
  lat_bottom: 18.4
  lon_left: 73.82
  lon_right: 73.9
  country: IN
  priority: 1
- name: pune_s_e
  lat_top: 18.48
  lat_bottom: 18.4
  lon_left: 73.9
  lon_right: 73.98
  country: IN
  priority: 1
- name: pune_s_w
  lat_top: 18.48
  lat_bottom: 18.4
  lon_left: 73.74
  lon_right: 73.82
  country: IN
  priority: 1
- name: pune_w
  lat_top: 18.56
  lat_bottom: 18.48
  lon_left: 73.74
  lon_right: 73.82
  country: IN
  priority: 1
- name: riyadh
  lat_top: 24.75
  lat_bottom: 24.67
  lon_left: 46.64
  lon_right: 46.72
  country: SA
  priority: 1
- name: riyadh_e
  lat_top: 24.75
  lat_bottom: 24.67
  lon_left: 46.72
  lon_right: 46.8
  country: SA
  priority: 1
- name: riyadh_n
  lat_top: 24.83
  lat_bottom: 24.75
  lon_left: 46.64
  lon_right: 46.72
  country: SA
  priority: 1
- name: riyadh_n_e
  lat_top: 24.83
  lat_bottom: 24.75
  lon_left: 46.72
  lon_right: 46.8
  country: SA
  priority: 1
- name: riyadh_n_w
  lat_top: 24.83
  lat_bottom: 24.75
  lon_left: 46.56
  lon_right: 46.64
  country: SA
  priority: 1
- name: riyadh_s
  lat_top: 24.67
  lat_bottom: 24.59
  lon_left: 46.64
  lon_right: 46.72
  country: SA
  priority: 1
- name: riyadh_s_e
  lat_top: 24.67
  lat_bottom: 24.59
  lon_left: 46.72
  lon_right: 46.8
  country: SA
  priority: 1
- name: riyadh_s_w
  lat_top: 24.67
  lat_bottom: 24.59
  lon_left: 46.56
  lon_right: 46.64
  country: SA
  priority: 1
- name: riyadh_w
  lat_top: 24.75
  lat_bottom: 24.67
  lon_left: 46.56
  lon_right: 46.64
  country: SA
  priority: 1
- name: sapporo
  lat_top: 43.1
  lat_bottom: 43.02
  lon_left: 141.31
  lon_right: 141.39
  country: JP
  priority: 1
- name: sapporo_e
  lat_top: 43.1
  lat_bottom: 43.02
  lon_left: 141.39
  lon_right: 141.47
  country: JP
  priority: 1
- name: sapporo_n
  lat_top: 43.18
  lat_bottom: 43.1
  lon_left: 141.31
  lon_right: 141.39
  country: JP
  priority: 1
- name: sapporo_n_e
  lat_top: 43.18
  lat_bottom: 43.1
  lon_left: 141.39
  lon_right: 141.47
  country: JP
  priority: 1
- name: sapporo_n_w
  lat_top: 43.18
  lat_bottom: 43.1
  lon_left: 141.23
  lon_right: 141.31
  country: JP
  priority: 1
- name: sapporo_s
  lat_top: 43.02
  lat_bottom: 42.94
  lon_left: 141.31
  lon_right: 141.39
  country: JP
  priority: 1
- name: sapporo_s_e
  lat_top: 43.02
  lat_bottom: 42.94
  lon_left: 141.39
  lon_right: 141.47
  country: JP
  priority: 1
- name: sapporo_s_w
  lat_top: 43.02
  lat_bottom: 42.94
  lon_left: 141.23
  lon_right: 141.31
  country: JP
  priority: 1
- name: sapporo_w
  lat_top: 43.1
  lat_bottom: 43.02
  lon_left: 141.23
  lon_right: 141.31
  country: JP
  priority: 1
- name: seoul
  lat_top: 37.61
  lat_bottom: 37.53
  lon_left: 126.94
  lon_right: 127.02
  country: KR
  priority: 1
- name: seoul_e
  lat_top: 37.61
  lat_bottom: 37.53
  lon_left: 127.02
  lon_right: 127.1
  country: KR
  priority: 1
- name: seoul_n
  lat_top: 37.69
  lat_bottom: 37.61
  lon_left: 126.94
  lon_right: 127.02
  country: KR
  priority: 1
- name: seoul_n_e
  lat_top: 37.69
  lat_bottom: 37.61
  lon_left: 127.02
  lon_right: 127.1
  country: KR
  priority: 1
- name: seoul_n_w
  lat_top: 37.69
  lat_bottom: 37.61
  lon_left: 126.86
  lon_right: 126.94
  country: KR
  priority: 1
- name: seoul_s
  lat_top: 37.53
  lat_bottom: 37.45
  lon_left: 126.94
  lon_right: 127.02
  country: KR
  priority: 1
- name: seoul_s_e
  lat_top: 37.53
  lat_bottom: 37.45
  lon_left: 127.02
  lon_right: 127.1
  country: KR
  priority: 1
- name: seoul_s_w
  lat_top: 37.53
  lat_bottom: 37.45
  lon_left: 126.86
  lon_right: 126.94
  country: KR
  priority: 1
- name: seoul_w
  lat_top: 37.61
  lat_bottom: 37.53
  lon_left: 126.86
  lon_right: 126.94
  country: KR
  priority: 1
- name: shanghai
  lat_top: 31.27
  lat_bottom: 31.19
  lon_left: 121.43
  lon_right: 121.51
  country: CN
  priority: 1
- name: shanghai_e
  lat_top: 31.27
  lat_bottom: 31.19
  lon_left: 121.51
  lon_right: 121.59
  country: CN
  priority: 1
- name: shanghai_n
  lat_top: 31.35
  lat_bottom: 31.27
  lon_left: 121.43
  lon_right: 121.51
  country: CN
  priority: 1
- name: shanghai_n_e
  lat_top: 31.35
  lat_bottom: 31.27
  lon_left: 121.51
  lon_right: 121.59
  country: CN
  priority: 1
- name: shanghai_n_w
  lat_top: 31.35
  lat_bottom: 31.27
  lon_left: 121.35
  lon_right: 121.43
  country: CN
  priority: 1
- name: shanghai_s
  lat_top: 31.19
  lat_bottom: 31.11
  lon_left: 121.43
  lon_right: 121.51
  country: CN
  priority: 1
- name: shanghai_s_e
  lat_top: 31.19
  lat_bottom: 31.11
  lon_left: 121.51
  lon_right: 121.59
  country: CN
  priority: 1
- name: shanghai_s_w
  lat_top: 31.19
  lat_bottom: 31.11
  lon_left: 121.35
  lon_right: 121.43
  country: CN
  priority: 1
- name: shanghai_w
  lat_top: 31.27
  lat_bottom: 31.19
  lon_left: 121.35
  lon_right: 121.43
  country: CN
  priority: 1
- name: shenzhen
  lat_top: 22.58
  lat_bottom: 22.5
  lon_left: 114.02
  lon_right: 114.1
  country: CN
  priority: 1
- name: shenzhen_e
  lat_top: 22.58
  lat_bottom: 22.5
  lon_left: 114.1
  lon_right: 114.18
  country: CN
  priority: 1
- name: shenzhen_n
  lat_top: 22.66
  lat_bottom: 22.58
  lon_left: 114.02
  lon_right: 114.1
  country: CN
  priority: 1
- name: shenzhen_n_e
  lat_top: 22.66
  lat_bottom: 22.58
  lon_left: 114.1
  lon_right: 114.18
  country: CN
  priority: 1
- name: shenzhen_n_w
  lat_top: 22.66
  lat_bottom: 22.58
  lon_left: 113.94
  lon_right: 114.02
  country: CN
  priority: 1
- name: shenzhen_s
  lat_top: 22.5
  lat_bottom: 22.42
  lon_left: 114.02
  lon_right: 114.1
  country: CN
  priority: 1
- name: shenzhen_s_e
  lat_top: 22.5
  lat_bottom: 22.42
  lon_left: 114.1
  lon_right: 114.18
  country: CN
  priority: 1
- name: shenzhen_s_w
  lat_top: 22.5
  lat_bottom: 22.42
  lon_left: 113.94
  lon_right: 114.02
  country: CN
  priority: 1
- name: shenzhen_w
  lat_top: 22.58
  lat_bottom: 22.5
  lon_left: 113.94
  lon_right: 114.02
  country: CN
  priority: 1
- name: singapore
  lat_top: 1.39
  lat_bottom: 1.31
  lon_left: 103.78
  lon_right: 103.86
  country: SG
  priority: 1
- name: singapore_e
  lat_top: 1.39
  lat_bottom: 1.31
  lon_left: 103.86
  lon_right: 103.94
  country: SG
  priority: 1
- name: singapore_n
  lat_top: 1.47
  lat_bottom: 1.39
  lon_left: 103.78
  lon_right: 103.86
  country: SG
  priority: 1
- name: singapore_n_e
  lat_top: 1.47
  lat_bottom: 1.39
  lon_left: 103.86
  lon_right: 103.94
  country: SG
  priority: 1
- name: singapore_n_w
  lat_top: 1.47
  lat_bottom: 1.39
  lon_left: 103.7
  lon_right: 103.78
  country: SG
  priority: 1
- name: singapore_s
  lat_top: 1.31
  lat_bottom: 1.23
  lon_left: 103.78
  lon_right: 103.86
  country: SG
  priority: 1
- name: singapore_s_e
  lat_top: 1.31
  lat_bottom: 1.23
  lon_left: 103.86
  lon_right: 103.94
  country: SG
  priority: 1
- name: singapore_s_w
  lat_top: 1.31
  lat_bottom: 1.23
  lon_left: 103.7
  lon_right: 103.78
  country: SG
  priority: 1
- name: singapore_w
  lat_top: 1.39
  lat_bottom: 1.31
  lon_left: 103.7
  lon_right: 103.78
  country: SG
  priority: 1
- name: surabaya
  lat_top: -7.21
  lat_bottom: -7.29
  lon_left: 112.71
  lon_right: 112.79
  country: ID
  priority: 1
- name: surabaya_e
  lat_top: -7.21
  lat_bottom: -7.29
  lon_left: 112.79
  lon_right: 112.87
  country: ID
  priority: 1
- name: surabaya_n
  lat_top: -7.13
  lat_bottom: -7.21
  lon_left: 112.71
  lon_right: 112.79
  country: ID
  priority: 1
- name: surabaya_n_e
  lat_top: -7.13
  lat_bottom: -7.21
  lon_left: 112.79
  lon_right: 112.87
  country: ID
  priority: 1
- name: surabaya_n_w
  lat_top: -7.13
  lat_bottom: -7.21
  lon_left: 112.63
  lon_right: 112.71
  country: ID
  priority: 1
- name: surabaya_s
  lat_top: -7.29
  lat_bottom: -7.37
  lon_left: 112.71
  lon_right: 112.79
  country: ID
  priority: 1
- name: surabaya_s_e
  lat_top: -7.29
  lat_bottom: -7.37
  lon_left: 112.79
  lon_right: 112.87
  country: ID
  priority: 1
- name: surabaya_s_w
  lat_top: -7.29
  lat_bottom: -7.37
  lon_left: 112.63
  lon_right: 112.71
  country: ID
  priority: 1
- name: surabaya_w
  lat_top: -7.21
  lat_bottom: -7.29
  lon_left: 112.63
  lon_right: 112.71
  country: ID
  priority: 1
- name: taipei
  lat_top: 25.07
  lat_bottom: 24.99
  lon_left: 121.53
  lon_right: 121.61
  country: TW
  priority: 1
- name: taipei_e
  lat_top: 25.07
  lat_bottom: 24.99
  lon_left: 121.61
  lon_right: 121.69
  country: TW
  priority: 1
- name: taipei_n
  lat_top: 25.15
  lat_bottom: 25.07
  lon_left: 121.53
  lon_right: 121.61
  country: TW
  priority: 1
- name: taipei_n_e
  lat_top: 25.15
  lat_bottom: 25.07
  lon_left: 121.61
  lon_right: 121.69
  country: TW
  priority: 1
- name: taipei_n_w
  lat_top: 25.15
  lat_bottom: 25.07
  lon_left: 121.45
  lon_right: 121.53
  country: TW
  priority: 1
- name: taipei_s
  lat_top: 24.99
  lat_bottom: 24.91
  lon_left: 121.53
  lon_right: 121.61
  country: TW
  priority: 1
- name: taipei_s_e
  lat_top: 24.99
  lat_bottom: 24.91
  lon_left: 121.61
  lon_right: 121.69
  country: TW
  priority: 1
- name: taipei_s_w
  lat_top: 24.99
  lat_bottom: 24.91
  lon_left: 121.45
  lon_right: 121.53
  country: TW
  priority: 1
- name: taipei_w
  lat_top: 25.07
  lat_bottom: 24.99
  lon_left: 121.45
  lon_right: 121.53
  country: TW
  priority: 1
- name: tashkent
  lat_top: 41.34
  lat_bottom: 41.26
  lon_left: 69.24
  lon_right: 69.32
  country: UZ
  priority: 1
- name: tashkent_e
  lat_top: 41.34
  lat_bottom: 41.26
  lon_left: 69.32
  lon_right: 69.4
  country: UZ
  priority: 1
- name: tashkent_n
  lat_top: 41.42
  lat_bottom: 41.34
  lon_left: 69.24
  lon_right: 69.32
  country: UZ
  priority: 1
- name: tashkent_n_e
  lat_top: 41.42
  lat_bottom: 41.34
  lon_left: 69.32
  lon_right: 69.4
  country: UZ
  priority: 1
- name: tashkent_n_w
  lat_top: 41.42
  lat_bottom: 41.34
  lon_left: 69.16
  lon_right: 69.24
  country: UZ
  priority: 1
- name: tashkent_s
  lat_top: 41.26
  lat_bottom: 41.18
  lon_left: 69.24
  lon_right: 69.32
  country: UZ
  priority: 1
- name: tashkent_s_e
  lat_top: 41.26
  lat_bottom: 41.18
  lon_left: 69.32
  lon_right: 69.4
  country: UZ
  priority: 1
- name: tashkent_s_w
  lat_top: 41.26
  lat_bottom: 41.18
  lon_left: 69.16
  lon_right: 69.24
  country: UZ
  priority: 1
- name: tashkent_w
  lat_top: 41.34
  lat_bottom: 41.26
  lon_left: 69.16
  lon_right: 69.24
  country: UZ
  priority: 1
- name: tehran
  lat_top: 35.73
  lat_bottom: 35.65
  lon_left: 51.35
  lon_right: 51.43
  country: IR
  priority: 1
- name: tehran_e
  lat_top: 35.73
  lat_bottom: 35.65
  lon_left: 51.43
  lon_right: 51.51
  country: IR
  priority: 1
- name: tehran_n
  lat_top: 35.81
  lat_bottom: 35.73
  lon_left: 51.35
  lon_right: 51.43
  country: IR
  priority: 1
- name: tehran_n_e
  lat_top: 35.81
  lat_bottom: 35.73
  lon_left: 51.43
  lon_right: 51.51
  country: IR
  priority: 1
- name: tehran_n_w
  lat_top: 35.81
  lat_bottom: 35.73
  lon_left: 51.27
  lon_right: 51.35
  country: IR
  priority: 1
- name: tehran_s
  lat_top: 35.65
  lat_bottom: 35.57
  lon_left: 51.35
  lon_right: 51.43
  country: IR
  priority: 1
- name: tehran_s_e
  lat_top: 35.65
  lat_bottom: 35.57
  lon_left: 51.43
  lon_right: 51.51
  country: IR
  priority: 1
- name: tehran_s_w
  lat_top: 35.65
  lat_bottom: 35.57
  lon_left: 51.27
  lon_right: 51.35
  country: IR
  priority: 1
- name: tehran_w
  lat_top: 35.73
  lat_bottom: 35.65
  lon_left: 51.27
  lon_right: 51.35
  country: IR
  priority: 1
- name: tel_aviv
  lat_top: 32.13
  lat_bottom: 32.05
  lon_left: 34.74
  lon_right: 34.82
  country: IL
  priority: 1
- name: tel_aviv_e
  lat_top: 32.13
  lat_bottom: 32.05
  lon_left: 34.82
  lon_right: 34.9
  country: IL
  priority: 1
- name: tel_aviv_n
  lat_top: 32.21
  lat_bottom: 32.13
  lon_left: 34.74
  lon_right: 34.82
  country: IL
  priority: 1
- name: tel_aviv_n_e
  lat_top: 32.21
  lat_bottom: 32.13
  lon_left: 34.82
  lon_right: 34.9
  country: IL
  priority: 1
- name: tel_aviv_n_w
  lat_top: 32.21
  lat_bottom: 32.13
  lon_left: 34.66
  lon_right: 34.74
  country: IL
  priority: 1
- name: tel_aviv_s
  lat_top: 32.05
  lat_bottom: 31.97
  lon_left: 34.74
  lon_right: 34.82
  country: IL
  priority: 1
- name: tel_aviv_s_e
  lat_top: 32.05
  lat_bottom: 31.97
  lon_left: 34.82
  lon_right: 34.9
  country: IL
  priority: 1
- name: tel_aviv_s_w
  lat_top: 32.05
  lat_bottom: 31.97
  lon_left: 34.66
  lon_right: 34.74
  country: IL
  priority: 1
- name: tel_aviv_w
  lat_top: 32.13
  lat_bottom: 32.05
  lon_left: 34.66
  lon_right: 34.74
  country: IL
  priority: 1
- name: tianjin
  lat_top: 39.18
  lat_bottom: 39.1
  lon_left: 117.14
  lon_right: 117.22
  country: CN
  priority: 1
- name: tianjin_e
  lat_top: 39.18
  lat_bottom: 39.1
  lon_left: 117.22
  lon_right: 117.3
  country: CN
  priority: 1
- name: tianjin_n
  lat_top: 39.26
  lat_bottom: 39.18
  lon_left: 117.14
  lon_right: 117.22
  country: CN
  priority: 1
- name: tianjin_n_e
  lat_top: 39.26
  lat_bottom: 39.18
  lon_left: 117.22
  lon_right: 117.3
  country: CN
  priority: 1
- name: tianjin_n_w
  lat_top: 39.26
  lat_bottom: 39.18
  lon_left: 117.06
  lon_right: 117.14
  country: CN
  priority: 1
- name: tianjin_s
  lat_top: 39.1
  lat_bottom: 39.02
  lon_left: 117.14
  lon_right: 117.22
  country: CN
  priority: 1
- name: tianjin_s_e
  lat_top: 39.1
  lat_bottom: 39.02
  lon_left: 117.22
  lon_right: 117.3
  country: CN
  priority: 1
- name: tianjin_s_w
  lat_top: 39.1
  lat_bottom: 39.02
  lon_left: 117.06
  lon_right: 117.14
  country: CN
  priority: 1
- name: tianjin_w
  lat_top: 39.18
  lat_bottom: 39.1
  lon_left: 117.06
  lon_right: 117.14
  country: CN
  priority: 1
- name: tokyo
  lat_top: 35.72
  lat_bottom: 35.64
  lon_left: 139.65
  lon_right: 139.73
  country: JP
  priority: 1
- name: tokyo_e
  lat_top: 35.72
  lat_bottom: 35.64
  lon_left: 139.73
  lon_right: 139.81
  country: JP
  priority: 1
- name: tokyo_n
  lat_top: 35.8
  lat_bottom: 35.72
  lon_left: 139.65
  lon_right: 139.73
  country: JP
  priority: 1
- name: tokyo_n_e
  lat_top: 35.8
  lat_bottom: 35.72
  lon_left: 139.73
  lon_right: 139.81
  country: JP
  priority: 1
- name: tokyo_n_w
  lat_top: 35.8
  lat_bottom: 35.72
  lon_left: 139.57
  lon_right: 139.65
  country: JP
  priority: 1
- name: tokyo_s
  lat_top: 35.64
  lat_bottom: 35.56
  lon_left: 139.65
  lon_right: 139.73
  country: JP
  priority: 1
- name: tokyo_s_e
  lat_top: 35.64
  lat_bottom: 35.56
  lon_left: 139.73
  lon_right: 139.81
  country: JP
  priority: 1
- name: tokyo_s_w
  lat_top: 35.64
  lat_bottom: 35.56
  lon_left: 139.57
  lon_right: 139.65
  country: JP
  priority: 1
- name: tokyo_w
  lat_top: 35.72
  lat_bottom: 35.64
  lon_left: 139.57
  lon_right: 139.65
  country: JP
  priority: 1
- name: vladivostok
  lat_top: 43.16
  lat_bottom: 43.08
  lon_left: 131.85
  lon_right: 131.93
  country: RU
  priority: 1
- name: vladivostok_e
  lat_top: 43.16
  lat_bottom: 43.08
  lon_left: 131.93
  lon_right: 132.01
  country: RU
  priority: 1
- name: vladivostok_n
  lat_top: 43.24
  lat_bottom: 43.16
  lon_left: 131.85
  lon_right: 131.93
  country: RU
  priority: 1
- name: vladivostok_n_e
  lat_top: 43.24
  lat_bottom: 43.16
  lon_left: 131.93
  lon_right: 132.01
  country: RU
  priority: 1
- name: vladivostok_n_w
  lat_top: 43.24
  lat_bottom: 43.16
  lon_left: 131.77
  lon_right: 131.85
  country: RU
  priority: 1
- name: vladivostok_s
  lat_top: 43.08
  lat_bottom: 43.0
  lon_left: 131.85
  lon_right: 131.93
  country: RU
  priority: 1
- name: vladivostok_s_e
  lat_top: 43.08
  lat_bottom: 43.0
  lon_left: 131.93
  lon_right: 132.01
  country: RU
  priority: 1
- name: vladivostok_s_w
  lat_top: 43.08
  lat_bottom: 43.0
  lon_left: 131.77
  lon_right: 131.85
  country: RU
  priority: 1
- name: vladivostok_w
  lat_top: 43.16
  lat_bottom: 43.08
  lon_left: 131.77
  lon_right: 131.85
  country: RU
  priority: 1
- name: wuhan
  lat_top: 30.63
  lat_bottom: 30.55
  lon_left: 114.27
  lon_right: 114.35
  country: CN
  priority: 1
- name: wuhan_e
  lat_top: 30.63
  lat_bottom: 30.55
  lon_left: 114.35
  lon_right: 114.43
  country: CN
  priority: 1
- name: wuhan_n
  lat_top: 30.71
  lat_bottom: 30.63
  lon_left: 114.27
  lon_right: 114.35
  country: CN
  priority: 1
- name: wuhan_n_e
  lat_top: 30.71
  lat_bottom: 30.63
  lon_left: 114.35
  lon_right: 114.43
  country: CN
  priority: 1
- name: wuhan_n_w
  lat_top: 30.71
  lat_bottom: 30.63
  lon_left: 114.19
  lon_right: 114.27
  country: CN
  priority: 1
- name: wuhan_s
  lat_top: 30.55
  lat_bottom: 30.47
  lon_left: 114.27
  lon_right: 114.35
  country: CN
  priority: 1
- name: wuhan_s_e
  lat_top: 30.55
  lat_bottom: 30.47
  lon_left: 114.35
  lon_right: 114.43
  country: CN
  priority: 1
- name: wuhan_s_w
  lat_top: 30.55
  lat_bottom: 30.47
  lon_left: 114.19
  lon_right: 114.27
  country: CN
  priority: 1
- name: wuhan_w
  lat_top: 30.63
  lat_bottom: 30.55
  lon_left: 114.19
  lon_right: 114.27
  country: CN
  priority: 1
- name: xian
  lat_top: 34.31
  lat_bottom: 34.23
  lon_left: 108.91
  lon_right: 108.99
  country: CN
  priority: 1
- name: xian_e
  lat_top: 34.31
  lat_bottom: 34.23
  lon_left: 108.99
  lon_right: 109.07
  country: CN
  priority: 1
- name: xian_n
  lat_top: 34.39
  lat_bottom: 34.31
  lon_left: 108.91
  lon_right: 108.99
  country: CN
  priority: 1
- name: xian_n_e
  lat_top: 34.39
  lat_bottom: 34.31
  lon_left: 108.99
  lon_right: 109.07
  country: CN
  priority: 1
- name: xian_n_w
  lat_top: 34.39
  lat_bottom: 34.31
  lon_left: 108.83
  lon_right: 108.91
  country: CN
  priority: 1
- name: xian_s
  lat_top: 34.23
  lat_bottom: 34.15
  lon_left: 108.91
  lon_right: 108.99
  country: CN
  priority: 1
- name: xian_s_e
  lat_top: 34.23
  lat_bottom: 34.15
  lon_left: 108.99
  lon_right: 109.07
  country: CN
  priority: 1
- name: xian_s_w
  lat_top: 34.23
  lat_bottom: 34.15
  lon_left: 108.83
  lon_right: 108.91
  country: CN
  priority: 1
- name: xian_w
  lat_top: 34.31
  lat_bottom: 34.23
  lon_left: 108.83
  lon_right: 108.91
  country: CN
  priority: 1
- name: yekaterinburg
  lat_top: 56.88
  lat_bottom: 56.8
  lon_left: 60.56
  lon_right: 60.64
  country: RU
  priority: 1
- name: yekaterinburg_e
  lat_top: 56.88
  lat_bottom: 56.8
  lon_left: 60.64
  lon_right: 60.72
  country: RU
  priority: 1
- name: yekaterinburg_n
  lat_top: 56.96
  lat_bottom: 56.88
  lon_left: 60.56
  lon_right: 60.64
  country: RU
  priority: 1
- name: yekaterinburg_n_e
  lat_top: 56.96
  lat_bottom: 56.88
  lon_left: 60.64
  lon_right: 60.72
  country: RU
  priority: 1
- name: yekaterinburg_n_w
  lat_top: 56.96
  lat_bottom: 56.88
  lon_left: 60.48
  lon_right: 60.56
  country: RU
  priority: 1
- name: yekaterinburg_s
  lat_top: 56.8
  lat_bottom: 56.72
  lon_left: 60.56
  lon_right: 60.64
  country: RU
  priority: 1
- name: yekaterinburg_s_e
  lat_top: 56.8
  lat_bottom: 56.72
  lon_left: 60.64
  lon_right: 60.72
  country: RU
  priority: 1
- name: yekaterinburg_s_w
  lat_top: 56.8
  lat_bottom: 56.72
  lon_left: 60.48
  lon_right: 60.56
  country: RU
  priority: 1
- name: yekaterinburg_w
  lat_top: 56.88
  lat_bottom: 56.8
  lon_left: 60.48
  lon_right: 60.56
  country: RU
  priority: 1
- name: yokohama
  lat_top: 35.48
  lat_bottom: 35.4
  lon_left: 139.6
  lon_right: 139.68
  country: JP
  priority: 1
- name: yokohama_e
  lat_top: 35.48
  lat_bottom: 35.4
  lon_left: 139.68
  lon_right: 139.76
  country: JP
  priority: 1
- name: yokohama_n
  lat_top: 35.56
  lat_bottom: 35.48
  lon_left: 139.6
  lon_right: 139.68
  country: JP
  priority: 1
- name: yokohama_n_e
  lat_top: 35.56
  lat_bottom: 35.48
  lon_left: 139.68
  lon_right: 139.76
  country: JP
  priority: 1
- name: yokohama_n_w
  lat_top: 35.56
  lat_bottom: 35.48
  lon_left: 139.52
  lon_right: 139.6
  country: JP
  priority: 1
- name: yokohama_s
  lat_top: 35.4
  lat_bottom: 35.32
  lon_left: 139.6
  lon_right: 139.68
  country: JP
  priority: 1
- name: yokohama_s_e
  lat_top: 35.4
  lat_bottom: 35.32
  lon_left: 139.68
  lon_right: 139.76
  country: JP
  priority: 1
- name: yokohama_s_w
  lat_top: 35.4
  lat_bottom: 35.32
  lon_left: 139.52
  lon_right: 139.6
  country: JP
  priority: 1
- name: yokohama_w
  lat_top: 35.48
  lat_bottom: 35.4
  lon_left: 139.52
  lon_right: 139.6
  country: JP
  priority: 1
- name: as_ce_36_46
  lat_top: 38.0
  lat_bottom: 36
  lon_left: 46
  lon_right: 48.0
  country: CE
  priority: 3
- name: as_ce_36_48
  lat_top: 38.0
  lat_bottom: 36
  lon_left: 48.0
  lon_right: 50.0
  country: CE
  priority: 3
- name: as_ce_36_50
  lat_top: 38.0
  lat_bottom: 36
  lon_left: 50.0
  lon_right: 52.0
  country: CE
  priority: 3
- name: as_ce_36_52
  lat_top: 38.0
  lat_bottom: 36
  lon_left: 52.0
  lon_right: 54.0
  country: CE
  priority: 3
- name: as_ce_36_54
  lat_top: 38.0
  lat_bottom: 36
  lon_left: 54.0
  lon_right: 56.0
  country: CE
  priority: 3
- name: as_ce_36_56
  lat_top: 38.0
  lat_bottom: 36
  lon_left: 56.0
  lon_right: 58.0
  country: CE
  priority: 3
- name: as_ce_36_58
  lat_top: 38.0
  lat_bottom: 36
  lon_left: 58.0
  lon_right: 60.0
  country: CE
  priority: 3
- name: as_ce_36_60
  lat_top: 38.0
  lat_bottom: 36
  lon_left: 60.0
  lon_right: 62.0
  country: CE
  priority: 3
- name: as_ce_36_62
  lat_top: 38.0
  lat_bottom: 36
  lon_left: 62.0
  lon_right: 64.0
  country: CE
  priority: 3
- name: as_ce_36_64
  lat_top: 38.0
  lat_bottom: 36
  lon_left: 64.0
  lon_right: 66.0
  country: CE
  priority: 3
- name: as_ce_36_66
  lat_top: 38.0
  lat_bottom: 36
  lon_left: 66.0
  lon_right: 68.0
  country: CE
  priority: 3
- name: as_ce_36_68
  lat_top: 38.0
  lat_bottom: 36
  lon_left: 68.0
  lon_right: 70.0
  country: CE
  priority: 3
- name: as_ce_36_70
  lat_top: 38.0
  lat_bottom: 36
  lon_left: 70.0
  lon_right: 72.0
  country: CE
  priority: 3
- name: as_ce_36_72
  lat_top: 38.0
  lat_bottom: 36
  lon_left: 72.0
  lon_right: 74.0
  country: CE
  priority: 3
- name: as_ce_36_74
  lat_top: 38.0
  lat_bottom: 36
  lon_left: 74.0
  lon_right: 76.0
  country: CE
  priority: 3
- name: as_ce_36_76
  lat_top: 38.0
  lat_bottom: 36
  lon_left: 76.0
  lon_right: 78.0
  country: CE
  priority: 3
- name: as_ce_36_78
  lat_top: 38.0
  lat_bottom: 36
  lon_left: 78.0
  lon_right: 80.0
  country: CE
  priority: 3
- name: as_ce_36_80
  lat_top: 38.0
  lat_bottom: 36
  lon_left: 80.0
  lon_right: 82.0
  country: CE
  priority: 3
- name: as_ce_36_82
  lat_top: 38.0
  lat_bottom: 36
  lon_left: 82.0
  lon_right: 84.0
  country: CE
  priority: 3
- name: as_ce_36_84
  lat_top: 38.0
  lat_bottom: 36
  lon_left: 84.0
  lon_right: 86.0
  country: CE
  priority: 3
- name: as_ce_36_86
  lat_top: 38.0
  lat_bottom: 36
  lon_left: 86.0
  lon_right: 88.0
  country: CE
  priority: 3
- name: as_ce_38_46
  lat_top: 40.0
  lat_bottom: 38.0
  lon_left: 46
  lon_right: 48.0
  country: CE
  priority: 3
- name: as_ce_38_48
  lat_top: 40.0
  lat_bottom: 38.0
  lon_left: 48.0
  lon_right: 50.0
  country: CE
  priority: 3
- name: as_ce_38_50
  lat_top: 40.0
  lat_bottom: 38.0
  lon_left: 50.0
  lon_right: 52.0
  country: CE
  priority: 3
- name: as_ce_38_52
  lat_top: 40.0
  lat_bottom: 38.0
  lon_left: 52.0
  lon_right: 54.0
  country: CE
  priority: 3
- name: as_ce_38_54
  lat_top: 40.0
  lat_bottom: 38.0
  lon_left: 54.0
  lon_right: 56.0
  country: CE
  priority: 3
- name: as_ce_38_56
  lat_top: 40.0
  lat_bottom: 38.0
  lon_left: 56.0
  lon_right: 58.0
  country: CE
  priority: 3
- name: as_ce_38_58
  lat_top: 40.0
  lat_bottom: 38.0
  lon_left: 58.0
  lon_right: 60.0
  country: CE
  priority: 3
- name: as_ce_38_60
  lat_top: 40.0
  lat_bottom: 38.0
  lon_left: 60.0
  lon_right: 62.0
  country: CE
  priority: 3
- name: as_ce_38_62
  lat_top: 40.0
  lat_bottom: 38.0
  lon_left: 62.0
  lon_right: 64.0
  country: CE
  priority: 3
- name: as_ce_38_64
  lat_top: 40.0
  lat_bottom: 38.0
  lon_left: 64.0
  lon_right: 66.0
  country: CE
  priority: 3
- name: as_ce_38_66
  lat_top: 40.0
  lat_bottom: 38.0
  lon_left: 66.0
  lon_right: 68.0
  country: CE
  priority: 3
- name: as_ce_38_68
  lat_top: 40.0
  lat_bottom: 38.0
  lon_left: 68.0
  lon_right: 70.0
  country: CE
  priority: 3
- name: as_ce_38_70
  lat_top: 40.0
  lat_bottom: 38.0
  lon_left: 70.0
  lon_right: 72.0
  country: CE
  priority: 3
- name: as_ce_38_72
  lat_top: 40.0
  lat_bottom: 38.0
  lon_left: 72.0
  lon_right: 74.0
  country: CE
  priority: 3
- name: as_ce_38_74
  lat_top: 40.0
  lat_bottom: 38.0
  lon_left: 74.0
  lon_right: 76.0
  country: CE
  priority: 3
- name: as_ce_38_76
  lat_top: 40.0
  lat_bottom: 38.0
  lon_left: 76.0
  lon_right: 78.0
  country: CE
  priority: 3
- name: as_ce_38_78
  lat_top: 40.0
  lat_bottom: 38.0
  lon_left: 78.0
  lon_right: 80.0
  country: CE
  priority: 3
- name: as_ce_38_80
  lat_top: 40.0
  lat_bottom: 38.0
  lon_left: 80.0
  lon_right: 82.0
  country: CE
  priority: 3
- name: as_ce_38_82
  lat_top: 40.0
  lat_bottom: 38.0
  lon_left: 82.0
  lon_right: 84.0
  country: CE
  priority: 3
- name: as_ce_38_84
  lat_top: 40.0
  lat_bottom: 38.0
  lon_left: 84.0
  lon_right: 86.0
  country: CE
  priority: 3
- name: as_ce_38_86
  lat_top: 40.0
  lat_bottom: 38.0
  lon_left: 86.0
  lon_right: 88.0
  country: CE
  priority: 3
- name: as_ce_40_46
  lat_top: 42.0
  lat_bottom: 40.0
  lon_left: 46
  lon_right: 48.0
  country: CE
  priority: 3
- name: as_ce_40_48
  lat_top: 42.0
  lat_bottom: 40.0
  lon_left: 48.0
  lon_right: 50.0
  country: CE
  priority: 3
- name: as_ce_40_50
  lat_top: 42.0
  lat_bottom: 40.0
  lon_left: 50.0
  lon_right: 52.0
  country: CE
  priority: 3
- name: as_ce_40_52
  lat_top: 42.0
  lat_bottom: 40.0
  lon_left: 52.0
  lon_right: 54.0
  country: CE
  priority: 3
- name: as_ce_40_54
  lat_top: 42.0
  lat_bottom: 40.0
  lon_left: 54.0
  lon_right: 56.0
  country: CE
  priority: 3
- name: as_ce_40_56
  lat_top: 42.0
  lat_bottom: 40.0
  lon_left: 56.0
  lon_right: 58.0
  country: CE
  priority: 3
- name: as_ce_40_58
  lat_top: 42.0
  lat_bottom: 40.0
  lon_left: 58.0
  lon_right: 60.0
  country: CE
  priority: 3
- name: as_ce_40_60
  lat_top: 42.0
  lat_bottom: 40.0
  lon_left: 60.0
  lon_right: 62.0
  country: CE
  priority: 3
- name: as_ce_40_62
  lat_top: 42.0
  lat_bottom: 40.0
  lon_left: 62.0
  lon_right: 64.0
  country: CE
  priority: 3
- name: as_ce_40_64
  lat_top: 42.0
  lat_bottom: 40.0
  lon_left: 64.0
  lon_right: 66.0
  country: CE
  priority: 3
- name: as_ce_40_66
  lat_top: 42.0
  lat_bottom: 40.0
  lon_left: 66.0
  lon_right: 68.0
  country: CE
  priority: 3
- name: as_ce_40_70
  lat_top: 42.0
  lat_bottom: 40.0
  lon_left: 70.0
  lon_right: 72.0
  country: CE
  priority: 3
- name: as_ce_40_72
  lat_top: 42.0
  lat_bottom: 40.0
  lon_left: 72.0
  lon_right: 74.0
  country: CE
  priority: 3
- name: as_ce_40_74
  lat_top: 42.0
  lat_bottom: 40.0
  lon_left: 74.0
  lon_right: 76.0
  country: CE
  priority: 3
- name: as_ce_40_76
  lat_top: 42.0
  lat_bottom: 40.0
  lon_left: 76.0
  lon_right: 78.0
  country: CE
  priority: 3
- name: as_ce_40_78
  lat_top: 42.0
  lat_bottom: 40.0
  lon_left: 78.0
  lon_right: 80.0
  country: CE
  priority: 3
- name: as_ce_40_80
  lat_top: 42.0
  lat_bottom: 40.0
  lon_left: 80.0
  lon_right: 82.0
  country: CE
  priority: 3
- name: as_ce_40_82
  lat_top: 42.0
  lat_bottom: 40.0
  lon_left: 82.0
  lon_right: 84.0
  country: CE
  priority: 3
- name: as_ce_40_84
  lat_top: 42.0
  lat_bottom: 40.0
  lon_left: 84.0
  lon_right: 86.0
  country: CE
  priority: 3
- name: as_ce_40_86
  lat_top: 42.0
  lat_bottom: 40.0
  lon_left: 86.0
  lon_right: 88.0
  country: CE
  priority: 3
- name: as_ce_42_46
  lat_top: 44.0
  lat_bottom: 42.0
  lon_left: 46
  lon_right: 48.0
  country: CE
  priority: 3
- name: as_ce_42_48
  lat_top: 44.0
  lat_bottom: 42.0
  lon_left: 48.0
  lon_right: 50.0
  country: CE
  priority: 3
- name: as_ce_42_50
  lat_top: 44.0
  lat_bottom: 42.0
  lon_left: 50.0
  lon_right: 52.0
  country: CE
  priority: 3
- name: as_ce_42_52
  lat_top: 44.0
  lat_bottom: 42.0
  lon_left: 52.0
  lon_right: 54.0
  country: CE
  priority: 3
- name: as_ce_42_54
  lat_top: 44.0
  lat_bottom: 42.0
  lon_left: 54.0
  lon_right: 56.0
  country: CE
  priority: 3
- name: as_ce_42_56
  lat_top: 44.0
  lat_bottom: 42.0
  lon_left: 56.0
  lon_right: 58.0
  country: CE
  priority: 3
- name: as_ce_42_58
  lat_top: 44.0
  lat_bottom: 42.0
  lon_left: 58.0
  lon_right: 60.0
  country: CE
  priority: 3
- name: as_ce_42_60
  lat_top: 44.0
  lat_bottom: 42.0
  lon_left: 60.0
  lon_right: 62.0
  country: CE
  priority: 3
- name: as_ce_42_62
  lat_top: 44.0
  lat_bottom: 42.0
  lon_left: 62.0
  lon_right: 64.0
  country: CE
  priority: 3
- name: as_ce_42_64
  lat_top: 44.0
  lat_bottom: 42.0
  lon_left: 64.0
  lon_right: 66.0
  country: CE
  priority: 3
- name: as_ce_42_66
  lat_top: 44.0
  lat_bottom: 42.0
  lon_left: 66.0
  lon_right: 68.0
  country: CE
  priority: 3
- name: as_ce_42_68
  lat_top: 44.0
  lat_bottom: 42.0
  lon_left: 68.0
  lon_right: 70.0
  country: CE
  priority: 3
- name: as_ce_42_70
  lat_top: 44.0
  lat_bottom: 42.0
  lon_left: 70.0
  lon_right: 72.0
  country: CE
  priority: 3
- name: as_ce_42_72
  lat_top: 44.0
  lat_bottom: 42.0
  lon_left: 72.0
  lon_right: 74.0
  country: CE
  priority: 3
- name: as_ce_42_74
  lat_top: 44.0
  lat_bottom: 42.0
  lon_left: 74.0
  lon_right: 76.0
  country: CE
  priority: 3
- name: as_ce_42_78
  lat_top: 44.0
  lat_bottom: 42.0
  lon_left: 78.0
  lon_right: 80.0
  country: CE
  priority: 3
- name: as_ce_42_80
  lat_top: 44.0
  lat_bottom: 42.0
  lon_left: 80.0
  lon_right: 82.0
  country: CE
  priority: 3
- name: as_ce_42_82
  lat_top: 44.0
  lat_bottom: 42.0
  lon_left: 82.0
  lon_right: 84.0
  country: CE
  priority: 3
- name: as_ce_42_84
  lat_top: 44.0
  lat_bottom: 42.0
  lon_left: 84.0
  lon_right: 86.0
  country: CE
  priority: 3
- name: as_ce_42_86
  lat_top: 44.0
  lat_bottom: 42.0
  lon_left: 86.0
  lon_right: 88.0
  country: CE
  priority: 3
- name: as_ce_44_46
  lat_top: 46.0
  lat_bottom: 44.0
  lon_left: 46
  lon_right: 48.0
  country: CE
  priority: 3
- name: as_ce_44_48
  lat_top: 46.0
  lat_bottom: 44.0
  lon_left: 48.0
  lon_right: 50.0
  country: CE
  priority: 3
- name: as_ce_44_50
  lat_top: 46.0
  lat_bottom: 44.0
  lon_left: 50.0
  lon_right: 52.0
  country: CE
  priority: 3
- name: as_ce_44_52
  lat_top: 46.0
  lat_bottom: 44.0
  lon_left: 52.0
  lon_right: 54.0
  country: CE
  priority: 3
- name: as_ce_44_54
  lat_top: 46.0
  lat_bottom: 44.0
  lon_left: 54.0
  lon_right: 56.0
  country: CE
  priority: 3
- name: as_ce_44_56
  lat_top: 46.0
  lat_bottom: 44.0
  lon_left: 56.0
  lon_right: 58.0
  country: CE
  priority: 3
- name: as_ce_44_58
  lat_top: 46.0
  lat_bottom: 44.0
  lon_left: 58.0
  lon_right: 60.0
  country: CE
  priority: 3
- name: as_ce_44_60
  lat_top: 46.0
  lat_bottom: 44.0
  lon_left: 60.0
  lon_right: 62.0
  country: CE
  priority: 3
- name: as_ce_44_62
  lat_top: 46.0
  lat_bottom: 44.0
  lon_left: 62.0
  lon_right: 64.0
  country: CE
  priority: 3
- name: as_ce_44_64
  lat_top: 46.0
  lat_bottom: 44.0
  lon_left: 64.0
  lon_right: 66.0
  country: CE
  priority: 3
- name: as_ce_44_66
  lat_top: 46.0
  lat_bottom: 44.0
  lon_left: 66.0
  lon_right: 68.0
  country: CE
  priority: 3
- name: as_ce_44_68
  lat_top: 46.0
  lat_bottom: 44.0
  lon_left: 68.0
  lon_right: 70.0
  country: CE
  priority: 3
- name: as_ce_44_70
  lat_top: 46.0
  lat_bottom: 44.0
  lon_left: 70.0
  lon_right: 72.0
  country: CE
  priority: 3
- name: as_ce_44_72
  lat_top: 46.0
  lat_bottom: 44.0
  lon_left: 72.0
  lon_right: 74.0
  country: CE
  priority: 3
- name: as_ce_44_74
  lat_top: 46.0
  lat_bottom: 44.0
  lon_left: 74.0
  lon_right: 76.0
  country: CE
  priority: 3
- name: as_ce_44_76
  lat_top: 46.0
  lat_bottom: 44.0
  lon_left: 76.0
  lon_right: 78.0
  country: CE
  priority: 3
- name: as_ce_44_78
  lat_top: 46.0
  lat_bottom: 44.0
  lon_left: 78.0
  lon_right: 80.0
  country: CE
  priority: 3
- name: as_ce_44_80
  lat_top: 46.0
  lat_bottom: 44.0
  lon_left: 80.0
  lon_right: 82.0
  country: CE
  priority: 3
- name: as_ce_44_82
  lat_top: 46.0
  lat_bottom: 44.0
  lon_left: 82.0
  lon_right: 84.0
  country: CE
  priority: 3
- name: as_ce_44_84
  lat_top: 46.0
  lat_bottom: 44.0
  lon_left: 84.0
  lon_right: 86.0
  country: CE
  priority: 3
- name: as_ce_44_86
  lat_top: 46.0
  lat_bottom: 44.0
  lon_left: 86.0
  lon_right: 88.0
  country: CE
  priority: 3
- name: as_ce_46_46
  lat_top: 48.0
  lat_bottom: 46.0
  lon_left: 46
  lon_right: 48.0
  country: CE
  priority: 3
- name: as_ce_46_48
  lat_top: 48.0
  lat_bottom: 46.0
  lon_left: 48.0
  lon_right: 50.0
  country: CE
  priority: 3
- name: as_ce_46_50
  lat_top: 48.0
  lat_bottom: 46.0
  lon_left: 50.0
  lon_right: 52.0
  country: CE
  priority: 3
- name: as_ce_46_52
  lat_top: 48.0
  lat_bottom: 46.0
  lon_left: 52.0
  lon_right: 54.0
  country: CE
  priority: 3
- name: as_ce_46_54
  lat_top: 48.0
  lat_bottom: 46.0
  lon_left: 54.0
  lon_right: 56.0
  country: CE
  priority: 3
- name: as_ce_46_56
  lat_top: 48.0
  lat_bottom: 46.0
  lon_left: 56.0
  lon_right: 58.0
  country: CE
  priority: 3
- name: as_ce_46_58
  lat_top: 48.0
  lat_bottom: 46.0
  lon_left: 58.0
  lon_right: 60.0
  country: CE
  priority: 3
- name: as_ce_46_60
  lat_top: 48.0
  lat_bottom: 46.0
  lon_left: 60.0
  lon_right: 62.0
  country: CE
  priority: 3
- name: as_ce_46_62
  lat_top: 48.0
  lat_bottom: 46.0
  lon_left: 62.0
  lon_right: 64.0
  country: CE
  priority: 3
- name: as_ce_46_64
  lat_top: 48.0
  lat_bottom: 46.0
  lon_left: 64.0
  lon_right: 66.0
  country: CE
  priority: 3
- name: as_ce_46_66
  lat_top: 48.0
  lat_bottom: 46.0
  lon_left: 66.0
  lon_right: 68.0
  country: CE
  priority: 3
- name: as_ce_46_68
  lat_top: 48.0
  lat_bottom: 46.0
  lon_left: 68.0
  lon_right: 70.0
  country: CE
  priority: 3
- name: as_ce_46_70
  lat_top: 48.0
  lat_bottom: 46.0
  lon_left: 70.0
  lon_right: 72.0
  country: CE
  priority: 3
- name: as_ce_46_72
  lat_top: 48.0
  lat_bottom: 46.0
  lon_left: 72.0
  lon_right: 74.0
  country: CE
  priority: 3
- name: as_ce_46_74
  lat_top: 48.0
  lat_bottom: 46.0
  lon_left: 74.0
  lon_right: 76.0
  country: CE
  priority: 3
- name: as_ce_46_76
  lat_top: 48.0
  lat_bottom: 46.0
  lon_left: 76.0
  lon_right: 78.0
  country: CE
  priority: 3
- name: as_ce_46_78
  lat_top: 48.0
  lat_bottom: 46.0
  lon_left: 78.0
  lon_right: 80.0
  country: CE
  priority: 3
- name: as_ce_46_80
  lat_top: 48.0
  lat_bottom: 46.0
  lon_left: 80.0
  lon_right: 82.0
  country: CE
  priority: 3
- name: as_ce_46_82
  lat_top: 48.0
  lat_bottom: 46.0
  lon_left: 82.0
  lon_right: 84.0
  country: CE
  priority: 3
- name: as_ce_46_84
  lat_top: 48.0
  lat_bottom: 46.0
  lon_left: 84.0
  lon_right: 86.0
  country: CE
  priority: 3
- name: as_ce_46_86
  lat_top: 48.0
  lat_bottom: 46.0
  lon_left: 86.0
  lon_right: 88.0
  country: CE
  priority: 3
- name: as_ce_48_46
  lat_top: 50.0
  lat_bottom: 48.0
  lon_left: 46
  lon_right: 48.0
  country: CE
  priority: 3
- name: as_ce_48_48
  lat_top: 50.0
  lat_bottom: 48.0
  lon_left: 48.0
  lon_right: 50.0
  country: CE
  priority: 3
- name: as_ce_48_50
  lat_top: 50.0
  lat_bottom: 48.0
  lon_left: 50.0
  lon_right: 52.0
  country: CE
  priority: 3
- name: as_ce_48_52
  lat_top: 50.0
  lat_bottom: 48.0
  lon_left: 52.0
  lon_right: 54.0
  country: CE
  priority: 3
- name: as_ce_48_54
  lat_top: 50.0
  lat_bottom: 48.0
  lon_left: 54.0
  lon_right: 56.0
  country: CE
  priority: 3
- name: as_ce_48_56
  lat_top: 50.0
  lat_bottom: 48.0
  lon_left: 56.0
  lon_right: 58.0
  country: CE
  priority: 3
- name: as_ce_48_58
  lat_top: 50.0
  lat_bottom: 48.0
  lon_left: 58.0
  lon_right: 60.0
  country: CE
  priority: 3
- name: as_ce_48_60
  lat_top: 50.0
  lat_bottom: 48.0
  lon_left: 60.0
  lon_right: 62.0
  country: CE
  priority: 3
- name: as_ce_48_62
  lat_top: 50.0
  lat_bottom: 48.0
  lon_left: 62.0
  lon_right: 64.0
  country: CE
  priority: 3
- name: as_ce_48_64
  lat_top: 50.0
  lat_bottom: 48.0
  lon_left: 64.0
  lon_right: 66.0
  country: CE
  priority: 3
- name: as_ce_48_66
  lat_top: 50.0
  lat_bottom: 48.0
  lon_left: 66.0
  lon_right: 68.0
  country: CE
  priority: 3
- name: as_ce_48_68
  lat_top: 50.0
  lat_bottom: 48.0
  lon_left: 68.0
  lon_right: 70.0
  country: CE
  priority: 3
- name: as_ce_48_70
  lat_top: 50.0
  lat_bottom: 48.0
  lon_left: 70.0
  lon_right: 72.0
  country: CE
  priority: 3
- name: as_ce_48_72
  lat_top: 50.0
  lat_bottom: 48.0
  lon_left: 72.0
  lon_right: 74.0
  country: CE
  priority: 3
- name: as_ce_48_74
  lat_top: 50.0
  lat_bottom: 48.0
  lon_left: 74.0
  lon_right: 76.0
  country: CE
  priority: 3
- name: as_ce_48_76
  lat_top: 50.0
  lat_bottom: 48.0
  lon_left: 76.0
  lon_right: 78.0
  country: CE
  priority: 3
- name: as_ce_48_78
  lat_top: 50.0
  lat_bottom: 48.0
  lon_left: 78.0
  lon_right: 80.0
  country: CE
  priority: 3
- name: as_ce_48_80
  lat_top: 50.0
  lat_bottom: 48.0
  lon_left: 80.0
  lon_right: 82.0
  country: CE
  priority: 3
- name: as_ce_48_82
  lat_top: 50.0
  lat_bottom: 48.0
  lon_left: 82.0
  lon_right: 84.0
  country: CE
  priority: 3
- name: as_ce_48_84
  lat_top: 50.0
  lat_bottom: 48.0
  lon_left: 84.0
